latitude,longitude,city,region_name,country_name,sport_name,number_of_customers
-26.4880,153.0758,Peregian Springs,Queensland,Australia,Rugby League,16
-31.9522,115.8614,Perth,Western Australia,Australia,Rugby League,1195
-27.5833,153.1000,Eight Mile Plains,Queensland,Australia,Rugby Union,226
-37.8895,145.0581,Carnegie,Victoria,Australia,Rugby Union,262
-27.4029,153.0297,Kedron,Queensland,Australia,Rugby League,58
-27.4419,152.9386,The Gap,Queensland,Australia,Tennis,33
-27.5976,153.0770,Runcorn,Queensland,Australia,Tennis,21
-33.8814,151.1800,Glebe,New South Wales,Australia,Tennis,83
-33.7722,151.0172,North Rocks,New South Wales,Australia,Tennis,21
-33.6833,151.1000,Hornsby,New South Wales,Australia,Soccer,850
-33.7833,150.9833,Northmead,New South Wales,Australia,Tennis,67
-37.8333,144.9667,Melbourne,Victoria,Australia,Rugby Union,45
-34.8500,138.6500,Gilles Plains,South Australia,Australia,Tennis,101
-33.8797,150.8778,Edensor Park,New South Wales,Australia,Rugby League,45
-16.5133,145.4644,Port Douglas,Queensland,Australia,Rugby League,9
-27.5167,153.1833,Capalaba,Queensland,Australia,Cricket,34
-27.8833,153.3000,Upper Coomera,Queensland,Australia,Tennis,47
-34.0341,151.0119,Barden Ridge,New South Wales,Australia,Australian Rules,3
-27.2925,152.9678,Bray Park,Queensland,Australia,Soccer,388
-37.8167,144.9000,Yarraville,Victoria,Australia,Tennis,64
-37.7500,145.1167,Templestowe,Victoria,Australia,Soccer,59
-33.8794,151.2193,Surry Hills,New South Wales,Australia,Soccer,1067
-33.7378,151.0722,Pennant Hills,New South Wales,Australia,Cricket,435
-31.9550,115.8359,Subiaco,Western Australia,Australia,Australian Rules,32
-27.9079,153.2566,Oxenford,Queensland,Australia,Australian Rules,24
-37.7945,145.2389,Ringwood,Victoria,Australia,Australian Rules,1341
-33.8667,150.9500,Fairfield,New South Wales,Australia,Rugby League,311
-27.5333,152.9833,Corinda,Queensland,Australia,Rugby League,50
-25.3305,152.8062,Hervey Bay,Queensland,Australia,Rugby League,23
-33.8719,151.0310,Lidcombe,New South Wales,Australia,Soccer,258
-37.9668,145.1667,Noble Park,Victoria,Australia,Cricket,395
-31.8882,115.8719,Dianella,Western Australia,Australia,Tennis,93
-37.5588,144.9124,Craigieburn,Victoria,Australia,Australian Rules,151
-33.9393,151.0993,Kingsgrove,New South Wales,Australia,Rugby Union,15
-41.0000,174.0000,,,New Zealand,Tennis,528
-37.8570,144.8977,Williamstown,Victoria,Australia,Rugby League,88
-37.8877,145.0952,Chadstone,Victoria,Australia,Soccer,103
-33.9313,151.1522,Wolli Creek,New South Wales,Australia,Rugby Union,36
-33.9049,151.0200,Yagoona,New South Wales,Australia,Rugby League,106
-32.1108,115.9356,Harrisdale,Western Australia,Australia,Australian Rules,11
-33.9833,151.0667,Oatley,New South Wales,Australia,Cricket,17
-37.7667,144.9667,Brunswick,Victoria,Australia,Rugby League,194
-37.9394,144.5427,Little River,Victoria,Australia,Rugby League,2
-38.0263,145.3069,Narre Warren,Victoria,Australia,Cricket,106
-37.9014,145.0188,Brighton East,Victoria,Australia,Rugby League,74
-33.7564,150.8807,Woodcroft,New South Wales,Australia,Tennis,47
-37.9167,145.1333,Clayton North,Victoria,Australia,Soccer,137
-37.8809,144.9855,Elwood,Victoria,Australia,Australian Rules,186
-27.6613,152.8967,Brookwater,Queensland,Australia,Soccer,25
-33.7413,150.9546,Bella Vista,New South Wales,Australia,Cricket,59
-16.7500,145.6667,Palm Cove,Queensland,Australia,Soccer,23
-38.0500,145.3667,Beaconsfield,Victoria,Australia,Soccer,20
-37.8511,144.9932,Prahran,Victoria,Australia,Cricket,166
-27.5058,153.1024,Carindale,Queensland,Australia,Australian Rules,71
-37.7667,145.0500,Ivanhoe East,Victoria,Australia,Soccer,9
-28.0641,153.3259,Tallai,Queensland,Australia,Tennis,3
-37.8846,145.2954,Ferntree Gully,Victoria,Australia,Soccer,70
-33.0681,151.4653,Avondale,New South Wales,Australia,Australian Rules,6
-38.4167,144.8833,Rosebud,Victoria,Australia,Tennis,14
-32.9310,151.7754,Newcastle,New South Wales,Australia,Rugby League,147
-34.5713,150.7757,Albion Park,New South Wales,Australia,Australian Rules,13
-33.9500,151.2333,Maroubra,New South Wales,Australia,Soccer,120
-37.7000,144.9333,Glenroy,Victoria,Australia,Australian Rules,149
-37.8552,145.0218,Armadale,Victoria,Australia,Soccer,70
-37.9201,145.0599,Bentleigh East,Victoria,Australia,Rugby League,68
-33.8615,151.2055,,New South Wales,Australia,Tennis,339
-37.8167,145.1000,Mont Albert,Victoria,Australia,Australian Rules,196
-27.5500,152.9833,Oxley,Queensland,Australia,Rugby League,61
-33.5068,150.6768,Kurrajong Heights,New South Wales,Australia,Australian Rules,22
-37.4180,145.0166,Wallan,Victoria,Australia,Tennis,8
-26.6816,153.1192,Mooloolaba,Queensland,Australia,Rugby Union,4
-34.0167,151.0333,Woronora Dam,New South Wales,Australia,Soccer,30
-37.7500,145.0667,Rosanna,Victoria,Australia,Cricket,21
-37.8333,145.0000,Cremorne,Victoria,Australia,Tennis,6
-27.9276,153.1848,North Tamborine,Queensland,Australia,Cricket,1
-32.3361,115.7486,Warnbro,Western Australia,Australia,Soccer,37
-34.9888,138.5520,Park Holme,South Australia,Australia,Cricket,4
-27.5656,152.9334,Sumner,Queensland,Australia,Rugby League,8
-27.5500,153.2667,Thornlands,Queensland,Australia,Rugby League,37
-33.8429,151.1107,Concord,New South Wales,Australia,Tennis,86
-37.8633,144.9802,St Kilda,Victoria,Australia,Rugby Union,89
-33.6576,150.9476,Kenthurst,New South Wales,Australia,Tennis,39
-33.7500,150.6667,Emu Plains,New South Wales,Australia,Soccer,75
-27.5667,152.9667,Darra,Queensland,Australia,Soccer,10
-32.7000,151.6000,Largs,New South Wales,Australia,Soccer,1
-32.1365,115.7830,Munster,Western Australia,Australia,Cricket,14
-31.9675,115.9063,Lathlain,Western Australia,Australia,Rugby Union,3
-34.8833,138.5500,Woodville,South Australia,Australia,Australian Rules,116
-37.6759,144.5969,Melton,Victoria,Australia,Rugby League,37
-33.4683,151.4339,Avoca Beach,New South Wales,Australia,Cricket,24
-33.8428,150.9006,Wetherill Park,New South Wales,Australia,Rugby League,116
-33.8333,151.1408,Hunters Hill,New South Wales,Australia,Soccer,142
-37.9457,145.1581,Springvale,Victoria,Australia,Rugby League,38
-38.2000,144.3500,Grovedale,Victoria,Australia,Soccer,40
-33.7898,150.9562,Toongabbie West,New South Wales,Australia,Rugby Union,39
-31.9386,115.7921,Wembley,Western Australia,Australia,Tennis,41
-27.9553,153.3991,Southport,Queensland,Australia,Tennis,118
-27.9440,153.3981,Labrador,Queensland,Australia,Australian Rules,55
-33.7500,150.6667,Emu Plains,New South Wales,Australia,Australian Rules,48
-27.9079,153.2566,Oxenford,Queensland,Australia,Soccer,24
-33.7016,151.2797,Elanora Heights,New South Wales,Australia,Tennis,31
-37.8833,145.3500,Sherbrook,Victoria,Australia,Cricket,3
-27.2500,152.8333,Kobble,Queensland,Australia,Tennis,12
-34.4668,138.8833,Nuriootpa,South Australia,Australia,Soccer,21
-27.5220,152.9822,Graceville,Queensland,Australia,Rugby League,30
-33.8406,151.2072,Sydney,New South Wales,Australia,Rugby League,37
-33.8050,151.1993,Willoughby,New South Wales,Australia,Soccer,48
-33.6821,150.9154,Rouse Hill,New South Wales,Australia,Rugby Union,19
-37.5667,143.8167,Ballarat,Victoria,Australia,Soccer,44
-42.7816,147.5627,Midway Point,Tasmania,Australia,Australian Rules,23
-33.8928,151.2041,Redfern,New South Wales,Australia,Cricket,133
-33.8500,151.0333,Auburn,New South Wales,Australia,Cricket,228
-36.9410,174.8483,Auckland,Auckland,New Zealand,Rugby Union,53
-41.5833,146.9333,Whitemore,Tasmania,Australia,Soccer,7
-33.8979,151.2336,Paddington,New South Wales,Australia,Rugby Union,41
-37.9167,145.2000,Mulgrave,Victoria,Australia,Cricket,79
-33.9022,151.2004,Alexandria,New South Wales,Australia,Rugby Union,106
-33.8332,151.0198,Granville,New South Wales,Australia,Cricket,149
-35.1667,147.5167,Wagga Wagga,New South Wales,Australia,Rugby League,19
-33.7828,150.7968,Colyton,New South Wales,Australia,Rugby League,190
-33.7714,150.9021,Blacktown,New South Wales,Australia,Rugby League,247
-34.8247,138.6264,Pooraka,South Australia,Australia,Soccer,22
-33.7335,150.9139,Acacia Gardens,New South Wales,Australia,Rugby Union,10
-27.5500,152.9833,Oxley,Queensland,Australia,Australian Rules,40
-33.7827,151.0489,Carlingford,New South Wales,Australia,Cricket,64
-31.7445,115.7683,Joondalup,Western Australia,Australia,Tennis,14
-37.8825,145.0229,Caulfield South,Victoria,Australia,Tennis,116
-33.9393,150.9815,Milperra,New South Wales,Australia,Australian Rules,22
-36.9167,149.6500,Wyndham,New South Wales,Australia,Tennis,22
-33.5000,150.5333,Bilpin,New South Wales,Australia,Rugby Union,2
-33.7764,150.9805,Winston Hills,New South Wales,Australia,Soccer,88
-33.3667,151.4833,Long Jetty,New South Wales,Australia,Australian Rules,5
-32.5734,115.7613,Mandurah,Western Australia,Australia,Soccer,58
-37.8825,145.0229,Caulfield South,Victoria,Australia,Rugby Union,23
-37.8064,145.0309,Kew,Victoria,Australia,Cricket,201
-38.1050,145.2163,Skye,Victoria,Australia,Australian Rules,37
-45.8962,170.5368,Dunedin,Otago,New Zealand,Rugby Union,14
-27.3500,153.0667,Boondall,Queensland,Australia,Rugby League,36
-34.9800,138.5738,Edwardstown,South Australia,Australia,Soccer,33
-33.7727,151.0818,Epping,New South Wales,Australia,Tennis,112
-37.8000,145.2833,Croydon,Victoria,Australia,Tennis,148
-31.7910,115.7530,Kallaroo,Western Australia,Australia,Cricket,6
-33.6156,150.8801,Oakville,New South Wales,Australia,Soccer,49
-37.7667,145.0833,Bulleen,Victoria,Australia,Soccer,30
-33.8799,151.1623,Newtown,New South Wales,Australia,Soccer,159
-38.3500,145.0167,Red Hill,Victoria,Australia,Australian Rules,14
-37.7204,145.0698,Macleod,Victoria,Australia,Tennis,69
-37.8213,145.2489,Ringwood East,Victoria,Australia,Cricket,45
-37.7667,145.0000,Northcote,Victoria,Australia,Rugby Union,39
-32.7168,151.5333,Rutherford,New South Wales,Australia,Australian Rules,26
-33.4000,138.8833,Hallett,South Australia,Australia,Tennis,15
-33.7667,150.8167,Mount Druitt,New South Wales,Australia,Rugby Union,12
-27.5593,152.9111,Riverhills,Queensland,Australia,Tennis,3
-24.9167,152.4833,Springfield,Queensland,Australia,Cricket,22
-27.0837,153.1594,Bongaree,Queensland,Australia,Cricket,5
-27.4673,153.0732,Morningside,Queensland,Australia,Cricket,7
-27.2435,153.0238,Mango Hill,Queensland,Australia,Cricket,17
-27.5507,152.9590,Seventeen Mile Rocks,Queensland,Australia,Australian Rules,8
-37.6986,144.7863,Taylors Lakes,Victoria,Australia,Cricket,14
-31.9386,115.7921,Wembley,Western Australia,Australia,Rugby Union,19
-33.8536,151.1542,Drummoyne,New South Wales,Australia,Cricket,121
-33.7980,151.2883,Manly,New South Wales,Australia,Rugby League,77
-37.9058,145.0067,Brighton Beach,Victoria,Australia,Australian Rules,286
-37.7500,145.0667,Heidelberg,Victoria,Australia,Rugby League,110
-33.2732,151.5588,Norah,New South Wales,Australia,Tennis,7
-28.1393,153.3530,Bonogin,Queensland,Australia,Rugby Union,3
-34.0431,150.7730,Currans Hill,New South Wales,Australia,Rugby League,17
-31.8111,115.8281,Madeley,Western Australia,Australia,Rugby Union,1
-34.9216,138.6201,Kent Town,South Australia,Australia,Rugby League,4
-31.8276,115.8650,Perth,Western Australia,Australia,Rugby League,100
-32.2333,115.7833,Medina,Western Australia,Australia,Soccer,195
-33.8678,151.2073,Sydney,New South Wales,Australia,Rugby Union,2317
-33.8678,151.2073,Sydney,New South Wales,Australia,Rugby League,5936
-27.5833,153.1000,Eight Mile Plains,Queensland,Australia,Soccer,355
-37.8140,144.9633,Melbourne,Victoria,Australia,Rugby Union,1422
-34.9048,138.6445,Payneham South,South Australia,Australia,Soccer,13
-27.4694,153.0458,New Farm,Queensland,Australia,Tennis,35
-33.8794,151.2193,Darlinghurst,New South Wales,Australia,Tennis,256
-33.7833,150.9833,Northmead,New South Wales,Australia,Rugby Union,27
-27.6153,152.9439,Brisbane,Queensland,Australia,Soccer,116
-38.1667,145.1667,Langwarrin,Victoria,Australia,Australian Rules,371
-38.1667,145.1667,Langwarrin,Victoria,Australia,Soccer,279
-37.8362,145.1943,Vermont,Victoria,Australia,Soccer,113
-33.9167,150.8500,West Hoxton,New South Wales,Australia,Tennis,24
-27.6640,153.1447,Meadowbrook,Queensland,Australia,Rugby League,19
-27.4833,153.2167,Birkdale,Queensland,Australia,Soccer,49
-38.0239,144.4062,Lara Lake,Victoria,Australia,Tennis,24
-37.8633,144.9802,St Kilda,Victoria,Australia,Tennis,366
-33.4833,151.3667,Davistown,New South Wales,Australia,Cricket,11
-26.4769,153.0948,Peregian Beach,Queensland,Australia,Tennis,8
-31.8958,115.7643,Scarborough,Western Australia,Australia,Rugby League,46
-38.2168,145.0333,Mornington,Victoria,Australia,Australian Rules,142
-37.9333,145.2333,Rowville,Victoria,Australia,Australian Rules,303
-33.4167,151.4167,Matcham,New South Wales,Australia,Australian Rules,25
-37.7375,144.8921,Niddrie,Victoria,Australia,Tennis,538
-32.9310,151.7754,Newcastle,New South Wales,Australia,Cricket,70
-33.6821,150.9154,Rouse Hill,New South Wales,Australia,Tennis,46
-38.1392,145.2684,Cranbourne,Victoria,Australia,Soccer,153
-37.7000,144.7667,Sydenham,Victoria,Australia,Tennis,19
-27.5127,152.2954,Gatton,Queensland,Australia,Soccer,34
-27.4833,153.0000,West End,Queensland,Australia,Soccer,40
-33.8429,151.1107,Concord,New South Wales,Australia,Rugby Union,35
-27.5030,152.9752,Indooroopilly,Queensland,Australia,Rugby League,65
-27.9565,153.3345,Gaven,Queensland,Australia,Tennis,9
-34.9000,138.5333,Findon,South Australia,Australia,Australian Rules,66
-33.7778,151.1057,Marsfield,New South Wales,Australia,Cricket,31
-34.4668,138.8833,Nuriootpa,South Australia,Australia,Australian Rules,28
-32.3151,115.7777,Rockingham,Western Australia,Australia,Rugby Union,19
-33.6728,150.7752,Riverstone,New South Wales,Australia,Rugby League,28
-37.5667,143.8167,Ballarat,Victoria,Australia,Rugby League,29
-34.9265,138.5703,Mile End,South Australia,Australia,Australian Rules,48
-37.7375,144.8921,Niddrie,Victoria,Australia,Rugby Union,111
-27.6633,153.0038,Forestdale,Queensland,Australia,Rugby Union,3
-27.3667,153.0167,Aspley,Queensland,Australia,Rugby Union,14
-33.8050,151.1993,Willoughby,New South Wales,Australia,Australian Rules,33
-37.8333,145.0500,Hawthorn,Victoria,Australia,Rugby Union,110
-31.9605,115.9159,Rivervale,Western Australia,Australia,Australian Rules,19
-27.5262,153.0605,Brisbane,Queensland,Australia,Rugby League,248
-33.8720,151.0339,Berala,New South Wales,Australia,Rugby League,110
-33.7500,151.3000,Dee Why,New South Wales,Australia,Soccer,76
-33.8708,151.2792,Vaucluse,New South Wales,Australia,Cricket,22
-27.4891,153.0188,Brisbane,Queensland,Australia,Soccer,269
-37.8500,145.2667,Bayswater,Victoria,Australia,Tennis,100
-33.9303,151.1421,Turrella,New South Wales,Australia,Australian Rules,8
-37.9167,145.1333,Clayton North,Victoria,Australia,Australian Rules,168
-27.6233,153.0479,Calamvale,Queensland,Australia,Australian Rules,62
-32.0580,115.9181,Canning Vale,Western Australia,Australia,Australian Rules,115
-27.1816,152.9178,Narangba,Queensland,Australia,Soccer,98
-27.9894,153.3363,Upper Nerang,Queensland,Australia,Soccer,39
-37.9270,145.0964,Oakleigh South,Victoria,Australia,Australian Rules,79
-39.1487,174.0832,New Plymouth,Taranaki,New Zealand,Rugby League,23
-36.9213,174.7393,Auckland,Auckland,New Zealand,Tennis,53
-36.8641,174.7621,Auckland,Auckland,New Zealand,Tennis,393
-37.2834,145.3925,Yea,Victoria,Australia,Cricket,2
-37.9333,145.2333,Rowville,Victoria,Australia,Soccer,199
-32.3151,115.7777,Cooloongup,Western Australia,Australia,Soccer,13
-38.1726,144.3842,Geelong,Victoria,Australia,Rugby League,51
-37.8864,145.0025,Elsternwick,Victoria,Australia,Tennis,36
-38.0333,145.3500,Berwick,Victoria,Australia,Soccer,206
-37.7333,145.2667,Wonga Park,Victoria,Australia,Australian Rules,99
-37.9368,145.4938,Cockatoo Creek,Victoria,Australia,Cricket,12
-27.4673,153.0732,Morningside,Queensland,Australia,Tennis,9
-35.0167,138.5667,Marion,South Australia,Australia,Soccer,20
-37.7833,144.9167,Ascot Vale,Victoria,Australia,Cricket,158
-33.8000,151.2667,Balgowlah,New South Wales,Australia,Soccer,49
-32.1000,115.7833,Spearwood,Western Australia,Australia,Cricket,9
-37.7883,145.1237,Doncaster,Victoria,Australia,Tennis,99
-33.7764,150.9805,Winston Hills,New South Wales,Australia,Australian Rules,56
-33.9668,151.2500,Malabar,New South Wales,Australia,Rugby League,35
-33.8000,151.1833,Chatswood,New South Wales,Australia,Australian Rules,95
-32.0398,115.8678,Rossmoyne,Western Australia,Australia,Cricket,10
-40.2905,175.7029,Palmerston North,Manawatu-Wanganui,New Zealand,Rugby League,1
-43.4957,172.5679,Christchurch,Canterbury,New Zealand,Rugby Union,28
-37.8190,145.1533,Blackburn,Victoria,Australia,Soccer,233
-38.1706,144.3114,Highton,Victoria,Australia,Tennis,24
-38.2168,145.0333,Mornington,Victoria,Australia,Soccer,87
-33.8279,151.2333,Mosman,New South Wales,Australia,Cricket,54
-27.9324,153.4002,Biggera Waters,Queensland,Australia,Tennis,11
-32.9833,151.5833,Fassifern,New South Wales,Australia,Rugby League,6
-33.5966,151.3238,Palm Beach,New South Wales,Australia,Australian Rules,10
-33.1354,151.5829,Gwandalan,New South Wales,Australia,Soccer,6
-33.8747,151.2633,Rose Bay,New South Wales,Australia,Australian Rules,38
-31.8882,115.8719,Dianella,Western Australia,Australia,Australian Rules,251
-34.8890,138.6470,Felixstow,South Australia,Australia,Soccer,6
-36.9158,174.6921,Auckland,Auckland,New Zealand,Soccer,86
-34.0333,151.1000,Miranda,New South Wales,Australia,Rugby League,68
-33.8838,150.9615,Carramar,New South Wales,Australia,Rugby League,25
-35.3530,149.0621,Waramanga,Australian Capital Territory,Australia,Australian Rules,12
-33.8500,151.2000,Waverton,New South Wales,Australia,Australian Rules,38
-33.9167,150.8500,West Hoxton,New South Wales,Australia,Rugby Union,20
-32.6667,152.0167,Carrington,New South Wales,Australia,Rugby League,8
-34.0794,150.5132,Oakdale,New South Wales,Australia,Tennis,18
-33.2667,151.5167,Gorokan,New South Wales,Australia,Soccer,35
-37.9978,145.2482,Eumemmerring,Victoria,Australia,Australian Rules,49
-33.9668,151.2500,Malabar,New South Wales,Australia,Australian Rules,20
-37.8887,144.7260,Point Cook,Victoria,Australia,Tennis,233
-37.9167,145.0500,McKinnon,Victoria,Australia,Australian Rules,33
-37.8329,144.9220,Melbourne,Victoria,Australia,Rugby League,82
-36.9177,174.8356,Auckland,Auckland,New Zealand,Rugby League,32
-31.9522,115.8614,,Western Australia,Australia,Soccer,100
-31.9011,115.8532,Yokine,Western Australia,Australia,Cricket,21
-37.9935,145.2389,Doveton,Victoria,Australia,Australian Rules,217
-33.9484,150.9521,Hammondville,New South Wales,Australia,Soccer,16
-37.9184,145.0358,Bentleigh,Victoria,Australia,Tennis,101
-32.0525,115.8878,Willetton,Western Australia,Australia,Rugby Union,11
-33.8420,151.2046,Sydney,New South Wales,Australia,Australian Rules,143
-33.7913,151.1298,Ryde,New South Wales,Australia,Rugby Union,12
-36.7443,174.6947,Auckland,Auckland,New Zealand,Rugby Union,20
-34.4167,150.8667,Keiraville,New South Wales,Australia,Soccer,2
-33.8420,151.2046,Sydney,New South Wales,Australia,Rugby League,184
-34.9910,138.8257,Balhannah,South Australia,Australia,Soccer,8
-34.8968,138.5914,Prospect,South Australia,Australia,Cricket,60
-33.9000,150.9333,Liverpool,New South Wales,Australia,Cricket,205
-37.7667,145.0833,Bulleen,Victoria,Australia,Australian Rules,53
-35.4050,149.1166,Fadden,Australian Capital Territory,Australia,Rugby Union,14
-33.9353,151.1257,Bexley,New South Wales,Australia,Rugby Union,34
-37.8005,144.9684,Carlton,Victoria,Australia,Rugby League,94
-37.6500,145.0333,Epping,Victoria,Australia,Australian Rules,88
-27.2435,153.0238,North Lakes,Queensland,Australia,Rugby Union,26
-33.9480,151.0798,Beverly Hills,New South Wales,Australia,Rugby Union,26
-36.8768,174.8042,Auckland,Auckland,New Zealand,Soccer,81
-37.6536,176.2044,Tauranga,Bay of Plenty,New Zealand,Cricket,23
-27.5202,153.0278,Brisbane,Queensland,Australia,Cricket,77
-27.5895,152.9858,Durack,Queensland,Australia,Rugby League,162
-37.7876,145.1489,Doncaster East,Victoria,Australia,Cricket,63
-33.9112,150.8807,Busby,New South Wales,Australia,Australian Rules,10
-37.8190,145.1533,Blackburn,Victoria,Australia,Cricket,132
-33.9075,151.2086,Zetland,New South Wales,Australia,Cricket,13
-33.8000,151.2833,,New South Wales,Australia,Cricket,8
-33.2768,151.4021,Alison,New South Wales,Australia,Cricket,12
-37.6008,145.0956,Mernda,Victoria,Australia,Australian Rules,40
-34.6757,138.7101,Blakeview,South Australia,Australia,Rugby League,12
-27.5593,152.9111,Riverhills,Queensland,Australia,Australian Rules,1
-35.2772,149.1054,Canberra,Australian Capital Territory,Australia,Cricket,248
-36.1218,146.8881,Wodonga,Victoria,Australia,Cricket,9
-38.0833,144.3833,Corio,Victoria,Australia,Rugby League,14
-37.8198,175.2865,Hamilton,Waikato,New Zealand,Soccer,23
-36.8058,174.7083,Auckland,Auckland,New Zealand,Cricket,15
-33.8667,151.0833,Homebush,New South Wales,Australia,Rugby League,97
-35.0167,138.6167,Blackwood,South Australia,Australia,Cricket,17
-33.8698,151.1940,Pyrmont,New South Wales,Australia,Rugby Union,21
-27.3211,152.9839,Brendale,Queensland,Australia,Tennis,7
-28.0859,153.4458,Little Burleigh,Queensland,Australia,Rugby Union,16
-38.0333,145.1167,Edithvale,Victoria,Australia,Australian Rules,21
-26.4000,153.0667,Noosaville,Queensland,Australia,Australian Rules,7
-36.6232,174.7063,Auckland,Auckland,New Zealand,Soccer,12
-32.6686,151.0454,Singleton,New South Wales,Australia,Tennis,15
-27.4611,153.0611,Hawthorne,Queensland,Australia,Rugby League,13
-37.9000,145.3500,Belgrave,Victoria,Australia,Cricket,7
-33.8863,150.9781,Villawood,New South Wales,Australia,Tennis,14
-37.7866,144.9685,Carlton North,Victoria,Australia,Cricket,32
-28.1000,153.4500,Burleigh Heads,Queensland,Australia,Tennis,27
-27.6672,152.7487,Deebing Heights,Queensland,Australia,Rugby Union,7
-33.2667,151.3667,Wyong Creek,New South Wales,Australia,Soccer,7
-30.2667,152.0167,Armidale,New South Wales,Australia,Australian Rules,11
-34.9000,138.5333,Findon,South Australia,Australia,Soccer,52
-37.8153,144.9756,Melbourne,Victoria,Australia,Australian Rules,19
-37.9555,176.9225,Whakatane,Bay of Plenty,New Zealand,Rugby Union,8
-27.0403,153.1439,Banksia Beach,Queensland,Australia,Cricket,18
-32.5243,115.7631,Greenfields,Western Australia,Australia,Tennis,13
-31.9333,115.8333,Perth,Western Australia,Australia,Tennis,9
-37.9833,145.0667,Mentone,Victoria,Australia,Rugby League,138
-33.7583,150.6729,Penrith,New South Wales,Australia,Rugby League,241
-33.9668,151.1000,Hurstville Grove,New South Wales,Australia,Rugby League,23
-33.7960,151.0974,Ryde,New South Wales,Australia,Rugby Union,21
-33.9014,150.9637,Lansvale,New South Wales,Australia,Tennis,2
-27.4610,152.9792,Bardon,Queensland,Australia,Rugby Union,14
-27.6876,153.0844,Crestmead,Queensland,Australia,Soccer,26
-34.8833,138.6667,Campbelltown,South Australia,Australia,Tennis,13
-37.8891,145.1740,Glen Waverley,Victoria,Australia,Cricket,112
-35.0500,138.6167,Coromandel Valley,South Australia,Australia,Soccer,38
-32.5431,115.6967,Halls Head,Western Australia,Australia,Tennis,8
-28.1500,153.5000,Tugun,Queensland,Australia,Cricket,58
-33.8500,151.0333,Auburn,New South Wales,Australia,Soccer,376
-27.6128,152.8601,Redbank,Queensland,Australia,Soccer,66
-32.0833,116.0000,Gosnells,Western Australia,Australia,Tennis,44
-37.8552,145.0218,Armadale,Victoria,Australia,Australian Rules,99
-29.4067,153.3524,Iluka,New South Wales,Australia,Tennis,9
-37.5667,143.8167,Ballarat,Victoria,Australia,Australian Rules,85
-37.7984,144.9449,North Melbourne,Victoria,Australia,Cricket,127
-37.9935,145.2389,Doveton,Victoria,Australia,Rugby League,88
-38.1333,145.1167,Frankston East,Victoria,Australia,Soccer,222
-33.8708,151.2389,Darling Point,New South Wales,Australia,Soccer,36
-33.7333,151.1000,Wahroonga,New South Wales,Australia,Rugby League,224
-33.2339,151.5541,Budgewoi,New South Wales,Australia,Rugby League,12
-33.9275,150.8081,Austral,New South Wales,Australia,Soccer,38
-41.4598,147.0841,Launceston,Tasmania,Australia,Australian Rules,309
-43.5319,172.6316,Christchurch,Canterbury,New Zealand,Cricket,79
-34.8333,138.6333,Ingle Farm,South Australia,Australia,Soccer,70
-27.1281,153.0524,Caboolture,Queensland,Australia,Soccer,106
-33.2677,151.4225,Watanobbi,New South Wales,Australia,Soccer,24
-37.8692,144.9977,St Kilda,Victoria,Australia,Cricket,23
-36.3000,144.6500,Rochester,Victoria,Australia,Soccer,12
-37.7500,144.9667,Coburg,Victoria,Australia,Soccer,270
-27.3694,152.9433,Bunya,Queensland,Australia,Soccer,9
-33.6552,151.3213,Newport,New South Wales,Australia,Australian Rules,9
-33.8167,151.0000,City of Parramatta,New South Wales,Australia,Cricket,159
-37.8667,145.2833,Boronia,Victoria,Australia,Cricket,52
-27.3333,153.0833,Sandgate,Queensland,Australia,Australian Rules,11
-34.8247,138.6264,Pooraka,South Australia,Australia,Australian Rules,28
-33.8904,151.2475,Bondi,New South Wales,Australia,Cricket,98
-27.5133,152.9752,Chelmer,Queensland,Australia,Cricket,6
-27.9741,153.3607,Molendinar,Queensland,Australia,Rugby League,30
-33.6833,151.1167,Mount Colah,New South Wales,Australia,Rugby League,40
-32.2124,146.1581,Glenwood,New South Wales,Australia,Cricket,111
-33.0167,151.7167,Redhead,New South Wales,Australia,Rugby League,9
-33.4244,151.3440,Gosford,New South Wales,Australia,Tennis,105
-33.3500,151.4333,Berkeley Vale,New South Wales,Australia,Soccer,21
-32.0600,115.9550,Thornlie,Western Australia,Australia,Soccer,168
-37.8666,145.1055,Ashwood,Victoria,Australia,Soccer,35
-33.7378,151.0722,Thornleigh,New South Wales,Australia,Australian Rules,54
-16.8833,145.7000,Redlynch,Queensland,Australia,Rugby Union,1
-27.6876,153.0844,Crestmead,Queensland,Australia,Australian Rules,16
-34.8833,138.5500,Woodville,South Australia,Australia,Rugby Union,12
-34.7571,138.6082,Salisbury,South Australia,Australia,Rugby League,77
-33.7000,151.0000,Glenhaven,New South Wales,Australia,Tennis,3
-34.9265,138.5703,Mile End,South Australia,Australia,Soccer,42
-16.7500,145.6667,Palm Cove,Queensland,Australia,Australian Rules,15
-27.4935,153.0763,Camp Hill,Queensland,Australia,Cricket,74
-27.3211,152.9839,Brendale,Queensland,Australia,Rugby Union,1
-27.5000,152.9000,Brookfield,Queensland,Australia,Soccer,22
-33.4000,138.8833,Hallett,South Australia,Australia,Rugby Union,6
-27.8875,153.3463,Helensvale,Queensland,Australia,Tennis,42
-36.9125,174.7335,Auckland,Auckland,New Zealand,Cricket,142
-37.8333,145.3667,Mount Dandenong,Victoria,Australia,Tennis,10
-36.9410,174.8483,Auckland,Auckland,New Zealand,Soccer,79
-37.9000,145.0333,Ormond,Victoria,Australia,Tennis,74
-37.8600,145.0549,Glen Iris,Victoria,Australia,Australian Rules,386
-33.9167,151.0833,Lakemba,New South Wales,Australia,Rugby League,201
-33.9000,151.0500,Greenacre,New South Wales,Australia,Cricket,99
-33.8333,151.1408,Hunters Hill,New South Wales,Australia,Australian Rules,72
-26.6172,153.0367,Nambour,Queensland,Australia,Soccer,24
-41.1943,174.9522,Lower Hutt,Wellington,New Zealand,Cricket,32
-45.9059,170.4912,Dunedin,Otago,New Zealand,Cricket,20
-26.6243,152.8678,Mapleton,Queensland,Australia,Soccer,15
-34.4167,150.5167,Mittagong,New South Wales,Australia,Soccer,16
-37.6667,145.0667,Mill Park,Victoria,Australia,Tennis,50
-33.3167,151.4167,Tuggerah,New South Wales,Australia,Rugby Union,22
-32.0389,115.7667,East Fremantle,Western Australia,Australia,Australian Rules,20
-38.0997,145.1725,Carrum Downs,Victoria,Australia,Cricket,44
-34.5000,150.4000,Burradoo,New South Wales,Australia,Tennis,11
-27.4455,152.9920,Ashgrove,Queensland,Australia,Soccer,76
-34.9695,138.5526,Plympton,South Australia,Australia,Rugby League,22
-37.7984,144.9783,Fitzroy,Victoria,Australia,Rugby Union,20
-33.7667,151.2667,Brookvale,New South Wales,Australia,Cricket,29
-37.6000,145.1500,Doreen,Victoria,Australia,Cricket,75
-34.0500,150.7000,Elderslie,New South Wales,Australia,Cricket,4
-37.6568,144.9346,Coolaroo,Victoria,Australia,Tennis,6
-35.3127,149.1278,Kingston,Australian Capital Territory,Australia,Rugby League,46
-33.8333,150.9833,Merrylands,New South Wales,Australia,Australian Rules,213
-33.3667,151.2833,Somersby,New South Wales,Australia,Rugby League,10
-33.1833,148.9333,Amaroo,New South Wales,Australia,Australian Rules,8
-19.2757,146.7792,Townsville,Queensland,Australia,Rugby Union,3
-34.0044,150.7725,Catherine Field,New South Wales,Australia,Rugby League,8
-33.7543,151.0650,Beecroft,New South Wales,Australia,Cricket,21
-36.8959,175.7144,Whitianga,Waikato,New Zealand,Australian Rules,2
-27.4886,153.0366,Woolloongabba,Queensland,Australia,Cricket,15
-37.7463,175.2707,Hamilton,Waikato,New Zealand,Tennis,20
-27.5649,153.0665,Macgregor,Queensland,Australia,Australian Rules,52
-34.3196,150.5753,Yanderra,New South Wales,Australia,Cricket,1
-34.0529,150.7598,Mount Annan,New South Wales,Australia,Rugby League,32
-36.4472,144.9827,Stanhope,Victoria,Australia,Rugby Union,1
-31.9794,115.9181,Carlisle,Western Australia,Australia,Australian Rules,29
-27.5667,152.9667,Darra,Queensland,Australia,Australian Rules,10
-33.9515,151.2278,Hillsdale,New South Wales,Australia,Rugby League,3
-33.5872,150.8586,Pitt Town,New South Wales,Australia,Cricket,5
-37.5333,143.8667,Ballarat,Victoria,Australia,Soccer,2
-37.6727,144.4383,Bacchus Marsh,Victoria,Australia,Cricket,18
-31.9363,115.8419,Leederville,Western Australia,Australia,Cricket,42
-27.4333,153.0167,Newmarket,Queensland,Australia,Soccer,57
-36.8874,174.8528,Auckland,Auckland,New Zealand,Rugby League,26
-33.7502,150.9354,Seven Hills,New South Wales,Australia,Tennis,28
-38.1035,147.1270,Sale,Victoria,Australia,Soccer,6
-26.9354,151.4510,Bell,Queensland,Australia,Soccer,62
-33.9500,151.0500,Riverwood,New South Wales,Australia,Soccer,56
-32.7733,151.6058,Ashtonfield,New South Wales,Australia,Cricket,16
-34.3052,150.9334,Thirroul,New South Wales,Australia,Australian Rules,4
-34.9259,138.5280,Lockleys,South Australia,Australia,Rugby League,9
-32.9280,151.7031,New Lambton,New South Wales,Australia,Cricket,17
-33.9833,151.0333,Peakhurst,New South Wales,Australia,Australian Rules,31
-34.8573,138.6133,Clearview,South Australia,Australia,Soccer,43
-37.7500,145.0167,Preston,Victoria,Australia,Tennis,106
-26.6546,153.0777,Maroochydore,Queensland,Australia,Cricket,9
-27.6603,152.7386,Yamanto,Queensland,Australia,Rugby League,14
-36.9808,174.5827,Auckland,Auckland,New Zealand,Rugby League,14
-39.0572,174.0741,New Plymouth,Taranaki,New Zealand,Soccer,6
-37.7833,144.9667,North Fitzroy,Victoria,Australia,Australian Rules,14
-33.7136,151.1473,Turramurra,New South Wales,Australia,Tennis,35
-34.8844,138.6062,Nailsworth,South Australia,Australia,Soccer,11
-33.7103,150.3753,Wentworth Falls,New South Wales,Australia,Rugby League,39
-32.7992,134.2116,Streaky Bay,South Australia,Australia,Australian Rules,7
-27.4906,152.9786,Taringa,Queensland,Australia,Tennis,14
-27.3694,152.9433,Bunya,Queensland,Australia,Cricket,1
-33.9210,150.8847,Miller,New South Wales,Australia,Soccer,39
-36.7661,174.7548,Auckland,Auckland,New Zealand,Soccer,9
-34.8209,138.6611,Para Vista,South Australia,Australia,Cricket,3
-37.2958,144.9525,Kilmore,Victoria,Australia,Cricket,17
-37.8570,144.8977,Williamstown,Victoria,Australia,Rugby Union,26
-38.1333,145.4333,Rythdale,Victoria,Australia,Tennis,3
-35.3767,149.1050,Farrer,Australian Capital Territory,Australia,Tennis,15
-36.8768,174.8042,Auckland,Auckland,New Zealand,Australian Rules,9
-41.1971,174.9198,Lower Hutt,Wellington,New Zealand,Cricket,45
-33.7500,150.7500,Kingswood,New South Wales,Australia,Australian Rules,12
-34.0799,150.5700,The Oaks,New South Wales,Australia,Soccer,24
-34.4775,150.4204,Bowral,New South Wales,Australia,Tennis,32
-27.3824,153.0790,Banyo,Queensland,Australia,Australian Rules,21
-31.8651,115.9366,Beechboro,Western Australia,Australia,Australian Rules,58
-33.2667,151.5167,Gorokan,New South Wales,Australia,Australian Rules,19
-37.7532,145.0385,Bellfield,Victoria,Australia,Cricket,8
-35.2667,138.6333,Willunga,South Australia,Australia,Tennis,3
-37.7909,145.0939,Balwyn North,Victoria,Australia,Soccer,92
-45.8667,170.4833,Roslyn,Otago,New Zealand,Soccer,4
-33.9332,151.0732,Roselands,New South Wales,Australia,Tennis,17
-27.5895,152.9858,Durack,Queensland,Australia,Australian Rules,103
-37.9333,145.1167,Clarinda,Victoria,Australia,Tennis,22
-33.9125,151.2500,Randwick,New South Wales,Australia,Rugby Union,67
-34.0159,150.6785,Cobbitty,New South Wales,Australia,Rugby League,6
-26.5333,153.0912,Mt Coolum,Queensland,Australia,Rugby League,8
-27.4478,153.1317,Hemmant,Queensland,Australia,Soccer,5
-33.0772,151.6523,Swansea,New South Wales,Australia,Cricket,8
-38.1462,145.9406,Warragul,Victoria,Australia,Rugby Union,5
-27.4736,153.1270,Tingalpa,Queensland,Australia,Rugby Union,7
-41.4598,147.0841,Launceston,Tasmania,Australia,Rugby League,95
-34.0333,151.0667,Kirrawee,New South Wales,Australia,Cricket,17
-33.4298,151.3714,Central Coast,New South Wales,Australia,Australian Rules,7
-32.9028,151.6907,Jesmond,New South Wales,Australia,Tennis,16
-34.0799,150.5700,The Oaks,New South Wales,Australia,Australian Rules,7
-27.5500,152.9833,Oxley,Queensland,Australia,Cricket,27
-34.9287,138.5986,,South Australia,Australia,Australian Rules,1074
-34.9287,138.5986,Adelaide,South Australia,Australia,Tennis,1004
-27.0000,133.0000,,,Australia,Tennis,5187
-31.7624,115.7589,Heathridge,Western Australia,Australia,Tennis,14
-23.2042,117.6697,Paraburdoo,Western Australia,Australia,Rugby League,93
-31.9500,115.8667,Perth,Western Australia,Australia,Rugby League,140
-27.3559,153.0445,Zillmere,Queensland,Australia,Tennis,33
-25.3305,152.8062,Hervey Bay,Queensland,Australia,Cricket,13
-32.3361,115.7486,Warnbro,Western Australia,Australia,Australian Rules,31
-33.8500,151.0333,Auburn,New South Wales,Australia,Australian Rules,194
-35.0500,138.6167,Coromandel Valley,South Australia,Australia,Australian Rules,45
-34.9180,138.6869,Magill,South Australia,Australia,Australian Rules,74
-33.6833,151.1000,Hornsby,New South Wales,Australia,Australian Rules,534
-37.8190,145.1533,Blackburn,Victoria,Australia,Australian Rules,357
-37.5774,144.7261,Sunbury,Victoria,Australia,Australian Rules,253
-33.7333,151.2000,Davidson,New South Wales,Australia,Australian Rules,2
-32.0000,115.7667,Cottesloe,Western Australia,Australia,Australian Rules,20
-33.8420,151.2046,Sydney,New South Wales,Australia,Cricket,103
-26.6957,153.1330,Buddina,Queensland,Australia,Tennis,189
-27.2925,152.9678,Bray Park,Queensland,Australia,Rugby League,569
-37.8720,145.0216,Caulfield North,Victoria,Australia,Australian Rules,232
-26.8067,152.9610,Landsborough,Queensland,Australia,Tennis,5
-32.8193,151.4791,Kurri Kurri,New South Wales,Australia,Rugby Union,271
-37.7945,145.2389,Ringwood,Victoria,Australia,Cricket,459
-37.7945,145.2389,Ringwood,Victoria,Australia,Rugby League,339
-33.9833,151.0333,Peakhurst,New South Wales,Australia,Cricket,22
-27.5975,152.7475,Brassall,Queensland,Australia,Soccer,74
-27.6154,151.7748,Toowoomba,Queensland,Australia,Rugby League,59
-34.7814,138.9181,Gumeracha,South Australia,Australia,Soccer,3
-28.7221,153.2565,Lismore,New South Wales,Australia,Soccer,30
-32.0751,115.8661,Leeming,Western Australia,Australia,Australian Rules,151
-37.8362,145.1943,Vermont,Victoria,Australia,Australian Rules,168
-38.1717,146.2926,Newborough,Victoria,Australia,Tennis,2
-37.9367,145.0342,Moorabbin,Victoria,Australia,Tennis,84
-38.1333,145.1167,Frankston East,Victoria,Australia,Australian Rules,344
-34.9398,138.6330,Unley,South Australia,Australia,Soccer,23
-33.8344,151.1293,Gladesville,New South Wales,Australia,Cricket,106
-37.8833,145.0500,Glen Huntly,Victoria,Australia,Cricket,67
-41.4024,147.1506,Mowbray,Tasmania,Australia,Australian Rules,47
-27.1935,153.0263,Deception Bay,Queensland,Australia,Soccer,134
-37.7891,145.1749,Donvale,Victoria,Australia,Soccer,69
-33.8810,151.0799,Strathfield,New South Wales,Australia,Soccer,462
-33.8974,150.9345,Paramatta,New South Wales,Australia,Soccer,304
-34.8047,138.6428,Para Hills West,South Australia,Australia,Soccer,11
-35.0076,138.7182,Stirling,South Australia,Australia,Soccer,34
-37.8833,145.0667,Malvern East,Victoria,Australia,Soccer,145
-27.8833,153.3000,Coomera,Queensland,Australia,Cricket,34
-27.5202,153.0278,Brisbane,Queensland,Australia,Tennis,66
-33.9500,151.2333,Maroubra,New South Wales,Australia,Rugby League,128
-34.7333,138.6500,Elizabeth,South Australia,Australia,Soccer,34
-34.0333,151.0833,Gymea,New South Wales,Australia,Tennis,46
-27.4891,153.0188,Highgate Hill,Queensland,Australia,Soccer,102
-27.1935,153.0263,Deception Bay,Queensland,Australia,Australian Rules,110
-34.9180,138.6869,Magill,South Australia,Australia,Tennis,30
-27.4704,153.0031,Brisbane,Queensland,Australia,Rugby League,123
-33.8389,151.2167,Neutral Bay,New South Wales,Australia,Tennis,89
-27.6071,151.9669,Middle Ridge,Queensland,Australia,Rugby League,1
-35.0167,138.7333,Aldgate,South Australia,Australia,Australian Rules,25
-35.0167,138.7333,Aldgate,South Australia,Australia,Soccer,19
-37.9000,145.3833,The Patch,Victoria,Australia,Cricket,2
-33.9845,150.8703,Macquarie Links,New South Wales,Australia,Rugby League,20
-33.6999,150.9411,Kellyville,New South Wales,Australia,Rugby League,534
-32.2124,146.1581,Glenwood,New South Wales,Australia,Soccer,214
-35.2159,138.7406,Meadows,South Australia,Australia,Soccer,37
-37.7320,144.9381,Pascoe Vale,Victoria,Australia,Tennis,105
-37.5588,144.9124,Craigieburn,Victoria,Australia,Cricket,78
-33.9500,151.0167,Revesby,New South Wales,Australia,Soccer,96
-35.0167,138.6167,Blackwood,South Australia,Australia,Tennis,14
-38.1943,145.0926,Mount Eliza,Victoria,Australia,Australian Rules,60
-35.0076,138.7182,Stirling,South Australia,Australia,Australian Rules,45
-38.0333,145.3500,Berwick,Victoria,Australia,Australian Rules,305
-38.0263,145.3069,Narre Warren,Victoria,Australia,Tennis,130
-37.7500,144.9667,Coburg,Victoria,Australia,Australian Rules,402
-28.1393,153.3530,Bonogin,Queensland,Australia,Soccer,16
-33.8699,151.2025,Ultimo,New South Wales,Australia,Tennis,53
-37.8656,145.2228,Wantirna South,Victoria,Australia,Australian Rules,74
-37.7891,145.1749,Donvale,Victoria,Australia,Rugby League,24
-37.9270,145.0964,Oakleigh South,Victoria,Australia,Rugby League,26
-37.8333,145.0833,Middle Camberwell,Victoria,Australia,Rugby League,28
-33.8746,150.8919,Greenfield Park,New South Wales,Australia,Rugby League,29
-37.8000,144.9833,Clifton Hill,Victoria,Australia,Soccer,56
-41.1303,174.8787,Porirua,Wellington,New Zealand,Cricket,36
-34.8968,138.5914,Prospect,South Australia,Australia,Soccer,95
-33.8667,151.2167,Potts Point,New South Wales,Australia,Rugby Union,5
-33.8124,151.0613,Ermington,New South Wales,Australia,Soccer,54
-32.0167,115.8333,Applecross,Western Australia,Australia,Rugby League,16
-33.9029,150.9047,Mount Pritchard,New South Wales,Australia,Rugby League,6
-33.9500,151.0333,Padstow,New South Wales,Australia,Soccer,136
-38.1035,147.1270,Sale,Victoria,Australia,Australian Rules,8
-12.3912,130.8905,Darwin,Northern Territory,Australia,Australian Rules,18
-33.8698,151.1940,Pyrmont,New South Wales,Australia,Soccer,102
-33.8333,150.9833,Merrylands,New South Wales,Australia,Rugby League,466
-37.6500,145.1000,Morang,Victoria,Australia,Tennis,86
-37.7000,144.9333,Glenroy,Victoria,Australia,Rugby League,41
-35.0297,138.8108,Hahndorf,South Australia,Australia,Rugby Union,2
-38.0333,145.2500,Hampton Park,Victoria,Australia,Rugby Union,8
-28.0278,153.4334,Broadbeach,Queensland,Australia,Tennis,48
-34.0165,150.8403,East Minto,New South Wales,Australia,Tennis,21
-38.0653,145.1228,Bonbeach,Victoria,Australia,Tennis,12
-27.5167,153.2500,Ormiston,Queensland,Australia,Rugby Union,12
-33.8799,151.1623,Newtown,New South Wales,Australia,Rugby League,135
-37.8296,145.0175,Richmond,Victoria,Australia,Cricket,249
-36.8844,174.7238,Auckland,Auckland,New Zealand,Cricket,104
-40.3326,175.6300,Palmerston North,Manawatu-Wanganui,New Zealand,Cricket,15
-33.9289,151.0511,Punchbowl,New South Wales,Australia,Tennis,112
-37.7583,145.0051,Thornbury,Victoria,Australia,Soccer,154
-33.7742,150.6357,Lapstone,New South Wales,Australia,Rugby League,7
-26.6844,153.0571,Buderim,Queensland,Australia,Soccer,98
-28.1545,153.3092,Upper Mudgeeraba,Queensland,Australia,Soccer,21
-27.2520,152.9923,Kallangur,Queensland,Australia,Rugby Union,8
-27.0693,153.2043,Woorim,Queensland,Australia,Rugby Union,5
-43.4957,172.5679,Christchurch,Canterbury,New Zealand,Rugby League,22
-37.7596,144.8974,Essendon,Victoria,Australia,Australian Rules,275
-36.8714,174.8979,Auckland,Auckland,New Zealand,Cricket,23
-20.2769,148.6976,Cannonvale,Queensland,Australia,Rugby League,6
-27.6362,152.9843,Heathwood,Queensland,Australia,Cricket,14
-27.6477,153.0546,Drewvale,Queensland,Australia,Tennis,4
-33.7395,151.2103,Belrose,New South Wales,Australia,Tennis,27
-37.9694,145.0481,Cheltenham,Victoria,Australia,Tennis,85
-27.5071,153.0477,Greenslopes,Queensland,Australia,Cricket,28
-27.4667,153.0333,Kangaroo Point,Queensland,Australia,Australian Rules,29
-26.9354,151.4510,Bell,Queensland,Australia,Australian Rules,64
-32.0389,115.7667,East Fremantle,Western Australia,Australia,Soccer,16
-33.9668,151.0833,Penshurst,New South Wales,Australia,Rugby League,124
-27.5000,151.6500,Yargullen,Queensland,Australia,Tennis,7
-32.7829,151.9203,Medowie,New South Wales,Australia,Rugby League,40
-37.7168,144.8333,Keilor,Victoria,Australia,Tennis,109
-38.0979,145.7161,Bunyip,Victoria,Australia,Australian Rules,20
-37.7806,145.5382,Woori Yallock,Victoria,Australia,Rugby League,2
-37.6982,145.0597,Bundoora,Victoria,Australia,Rugby Union,11
-27.6603,152.7386,Yamanto,Queensland,Australia,Australian Rules,10
-37.9524,176.9959,Whakatane,Bay of Plenty,New Zealand,Cricket,2
-33.9333,151.2333,Kingsford,New South Wales,Australia,Rugby League,42
-43.5007,172.6257,Christchurch,Canterbury,New Zealand,Rugby Union,17
-39.0725,174.0554,New Plymouth,Taranaki,New Zealand,Rugby League,16
-33.9833,151.2333,Little Bay,New South Wales,Australia,Soccer,7
-31.8525,115.9749,Dayton,Western Australia,Australia,Rugby Union,4
-33.6155,150.8337,McGraths Hill,New South Wales,Australia,Soccer,16
-37.8833,145.0500,Glen Huntly,Victoria,Australia,Rugby Union,21
-37.7371,144.8283,Kealba,Victoria,Australia,Rugby League,4
-37.7463,175.2707,Hamilton,Waikato,New Zealand,Rugby Union,17
-34.9914,138.6000,Clapham,South Australia,Australia,Soccer,1
-35.0167,138.5167,Brighton,South Australia,Australia,Rugby League,11
-31.9853,115.8052,Nedlands,Western Australia,Australia,Cricket,33
-27.2000,152.5000,Murrumba,Queensland,Australia,Cricket,14
-33.6793,151.2936,Sydney,New South Wales,Australia,Soccer,9
-38.6673,178.0286,Gisborne,Gisborne,New Zealand,Rugby Union,12
-13.0655,143.4047,Nundah,Queensland,Australia,Rugby League,62
-37.6500,145.0333,Epping,Victoria,Australia,Rugby League,28
-33.8912,150.8699,Bonnyrigg Heights,New South Wales,Australia,Soccer,60
-33.5278,150.6291,Kurrajong Heights,New South Wales,Australia,Rugby League,20
-31.9875,115.7861,Claremont,Western Australia,Australia,Soccer,35
-27.4889,153.1651,Wakerley,Queensland,Australia,Australian Rules,6
-33.7828,150.7968,Saint Marys,New South Wales,Australia,Tennis,71
-33.8406,151.2072,Sydney,New South Wales,Australia,Australian Rules,26
-35.0167,138.5333,Oaklands,South Australia,Australia,Australian Rules,14
-31.6148,115.6837,Alkimos,Western Australia,Australia,Rugby Union,5
-31.9958,115.7958,Dalkeith,Western Australia,Australia,Soccer,8
-41.3097,173.2432,Nelson,Nelson,New Zealand,Soccer,11
-33.7583,150.6729,Penrith,New South Wales,Australia,Rugby Union,54
-37.9431,145.1060,Clayton North,Victoria,Australia,Tennis,52
-33.8833,151.1667,Annandale,New South Wales,Australia,Rugby Union,53
-34.9259,138.5280,Lockleys,South Australia,Australia,Australian Rules,36
-34.9561,138.7444,Uraidla,South Australia,Australia,Tennis,7
-27.6434,153.0298,Parkinson,Queensland,Australia,Rugby League,49
-27.6068,153.0937,Kuraby,Queensland,Australia,Soccer,66
-32.0500,115.7667,East Fremantle,Western Australia,Australia,Cricket,19
-33.9167,151.2000,Rosebery,New South Wales,Australia,Rugby Union,6
-27.3667,153.0167,Aspley,Queensland,Australia,Tennis,37
-33.9167,151.2167,Kensington,New South Wales,Australia,Rugby League,36
-36.6333,174.7667,Whangaparaoa,Auckland,New Zealand,Rugby Union,2
-36.0167,146.0833,Yarrawonga,Victoria,Australia,Rugby League,3
-37.8399,145.0352,Malvern,Victoria,Australia,Rugby Union,19
-38.3500,145.2000,Crib Point,Victoria,Australia,Australian Rules,17
-33.4000,151.4167,Holgate,New South Wales,Australia,Australian Rules,2
-33.9419,150.8717,Prestons,New South Wales,Australia,Tennis,33
-31.7747,115.7627,Beldon,Western Australia,Australia,Australian Rules,17
-33.8833,151.1500,Leichhardt,New South Wales,Australia,Australian Rules,124
-37.7104,145.0836,Watsonia,Victoria,Australia,Soccer,19
-37.9912,145.1739,Keysborough,Victoria,Australia,Soccer,63
-37.8167,145.3500,Montrose,Victoria,Australia,Soccer,26
-36.6374,174.6930,Auckland,Auckland,New Zealand,Soccer,7
-27.3725,153.0471,Geebung,Queensland,Australia,Tennis,24
-43.3083,172.5701,Rangiora,Canterbury,New Zealand,Cricket,1
-37.3865,175.8446,Waihi,Waikato,New Zealand,Tennis,1
-34.4351,150.4700,Willow Vale,New South Wales,Australia,Rugby League,2
-41.0833,146.7500,Greens Beach,Tasmania,Australia,Rugby League,2
-34.9514,138.5670,Kurralta Park,South Australia,Australia,Australian Rules,14
-36.8667,174.7833,Parnell,Auckland,New Zealand,Rugby Union,4
-37.8000,145.2333,Ringwood North,Victoria,Australia,Cricket,28
-34.9908,138.5995,Panorama,South Australia,Australia,Rugby League,7
-33.8748,151.2280,Rushcutters Bay,New South Wales,Australia,Cricket,6
-31.8750,115.8284,Balcatta,Western Australia,Australia,Rugby League,15
-27.5333,153.0333,Tarragindi,Queensland,Australia,Cricket,4
-42.8899,147.4437,Rokeby,Tasmania,Australia,Rugby Union,1
-27.4333,153.0333,Windsor,Queensland,Australia,Tennis,31
-37.9833,145.0667,Parkdale,Victoria,Australia,Rugby League,15
-33.9205,151.2552,Coogee,New South Wales,Australia,Soccer,155
-34.7263,135.8744,Port Lincoln,South Australia,Australia,Australian Rules,9
-33.1581,151.5348,Mannering Park,New South Wales,Australia,Rugby League,3
-34.8386,138.4908,Semaphore,South Australia,Australia,Australian Rules,5
-35.3346,149.0319,Duffy,Australian Capital Territory,Australia,Soccer,17
-35.0000,138.7000,Crafers,South Australia,Australia,Tennis,11
-32.9725,151.6527,Warners Bay,New South Wales,Australia,Rugby League,44
-41.3155,174.8166,Wellington,Wellington,New Zealand,Tennis,21
-42.8296,147.3463,Lindisfarne,Tasmania,Australia,Cricket,36
-27.5378,152.8619,Anstead,Queensland,Australia,Australian Rules,5
-31.8111,115.8281,Madeley,Western Australia,Australia,Rugby League,5
-16.8833,145.7167,Freshwater,Queensland,Australia,Rugby Union,2
-37.7833,145.0333,Alphington,Victoria,Australia,Rugby Union,19
-27.5263,153.0605,Holland Park West,Queensland,Australia,Soccer,39
-33.8487,151.2162,Milsons Point,New South Wales,Australia,Australian Rules,1
-34.8121,138.6580,Para Hills,South Australia,Australia,Australian Rules,20
-27.4029,153.0297,Kedron,Queensland,Australia,Australian Rules,39
-41.3154,174.8854,Lower Hutt,Wellington,New Zealand,Rugby League,2
-40.6222,175.2866,Levin,Manawatu-Wanganui,New Zealand,Rugby Union,1
-32.4668,138.2000,Bruce,South Australia,Australia,Cricket,7
-36.4190,150.0636,Bermagui,New South Wales,Australia,Tennis,1
-33.1097,151.5323,Bonnells Bay,New South Wales,Australia,Soccer,6
-37.7453,144.5531,Melton South,Victoria,Australia,Rugby League,17
-33.9668,150.9000,Glenfield,New South Wales,Australia,Cricket,57
-33.9032,150.9677,Sydney,New South Wales,Australia,Australian Rules,10
-33.9668,151.2500,Malabar,New South Wales,Australia,Soccer,22
-36.7582,144.2802,Bendigo,Victoria,Australia,Rugby Union,6
-38.1705,144.7180,Saint Leonards,Victoria,Australia,Cricket,5
-30.1468,153.1924,Sandy Beach,New South Wales,Australia,Rugby League,4
-34.7263,135.8744,Port Lincoln,South Australia,Australia,Soccer,9
-37.8082,144.8791,Kingsville,Victoria,Australia,Cricket,6
-33.6776,151.3031,Mona Vale,New South Wales,Australia,Cricket,10
-27.7500,153.1333,Buccan,Queensland,Australia,Rugby League,6
-27.5278,152.9619,Fig Tree Pocket,Queensland,Australia,Rugby Union,2
-32.9167,151.6667,Wallsend,New South Wales,Australia,Tennis,21
-23.3644,150.5279,Rockhampton,Queensland,Australia,Rugby League,5
-33.7990,150.9430,Girraween,New South Wales,Australia,Cricket,27
-33.8743,150.9098,Wakeley,New South Wales,Australia,Tennis,15
-27.3000,152.6167,Dundas,Queensland,Australia,Tennis,1
-37.5833,145.2000,Arthurs Creek,Victoria,Australia,Cricket,2
-37.5833,145.0333,Wollert,Victoria,Australia,Tennis,5
-37.9333,145.4667,Emerald,Victoria,Australia,Soccer,18
-27.5500,153.2667,Thornlands,Queensland,Australia,Cricket,15
-38.3333,144.2667,Torquay,Victoria,Australia,Rugby Union,3
-37.9657,144.1357,Lethbridge,Victoria,Australia,Soccer,7
-32.1334,115.9163,Piara Waters,Western Australia,Australia,Soccer,11
-37.9014,145.0188,Brighton East,Victoria,Australia,Rugby Union,28
-33.7465,150.7393,Werrington County,New South Wales,Australia,Cricket,2
-35.4669,148.1137,Green Valley,New South Wales,Australia,Cricket,16
-35.1987,149.0644,Spence,Australian Capital Territory,Australia,Rugby Union,7
-42.8333,147.6167,Lewisham,Tasmania,Australia,Rugby League,8
-34.0833,151.0167,Heathcote,New South Wales,Australia,Soccer,7
-33.7487,151.0338,Pennant Hills,New South Wales,Australia,Australian Rules,10
-37.2500,144.5333,Pipers Creek,Victoria,Australia,Australian Rules,5
-31.8333,116.0167,Herne Hill,Western Australia,Australia,Tennis,1
-34.7228,150.3099,Moss Vale,New South Wales,Australia,Cricket,6
-37.6393,144.2016,Ballan,Victoria,Australia,Soccer,21
-41.5591,147.1951,Perth,Tasmania,Australia,Australian Rules,39
-34.3667,150.9167,Corrimal,New South Wales,Australia,Cricket,7
-40.5963,175.2511,Levin,Manawatu-Wanganui,New Zealand,Tennis,7
-36.9690,174.8822,Auckland,Auckland,New Zealand,Cricket,6
-37.2958,144.9525,Kilmore,Victoria,Australia,Rugby League,8
-37.8500,145.2167,Wantirna,Victoria,Australia,Tennis,29
-28.1333,153.4667,Currumbin,Queensland,Australia,Cricket,9
-27.5667,152.4167,Plainland,Queensland,Australia,Tennis,3
-27.6434,153.0298,Parkinson,Queensland,Australia,Soccer,58
-42.9140,147.3071,Tolmans Hill,Tasmania,Australia,Soccer,9
-39.9146,175.0547,Wanganui,Manawatu-Wanganui,New Zealand,Rugby Union,4
-27.7463,153.0312,Park Ridge,Queensland,Australia,Rugby League,26
-27.4667,153.0167,Spring Hill,Queensland,Australia,Rugby Union,11
-41.3097,173.2432,Nelson,Nelson,New Zealand,Cricket,14
-27.6605,152.8790,Augustine Heights,Queensland,Australia,Soccer,22
-33.8000,151.2167,Castlecrag,New South Wales,Australia,Soccer,13
-32.8333,138.7000,Black Rock,South Australia,Australia,Australian Rules,11
-34.4500,149.9833,Goulburn,New South Wales,Australia,Rugby Union,14
-33.8603,151.2016,Barangaroo,New South Wales,Australia,Rugby League,45
-33.0423,151.6116,Coal Point,New South Wales,Australia,Tennis,67
-33.7320,151.3012,Collaroy,New South Wales,Australia,Soccer,50
-33.9047,150.6086,Silverdale,New South Wales,Australia,Cricket,10
-33.8941,151.1642,Sydney,New South Wales,Australia,Rugby League,13
-27.4710,153.0243,Brisbane,Queensland,Australia,Rugby Union,42
-37.7833,145.3833,Mount Evelyn,Victoria,Australia,Cricket,11
-27.4629,153.0981,Murarrie,Queensland,Australia,Soccer,23
-33.2667,151.4833,Kanwal,New South Wales,Australia,Soccer,32
-31.6000,147.2667,Warrigal,New South Wales,Australia,Soccer,11
-33.4000,151.3500,Narara,New South Wales,Australia,Rugby Union,8
-33.8877,151.0105,Sefton,New South Wales,Australia,Cricket,23
-27.4214,152.4339,Lowood,Queensland,Australia,Soccer,9
-34.9510,138.6290,Fullarton,South Australia,Australia,Rugby League,9
-37.8333,144.3667,Balliang,Victoria,Australia,Australian Rules,1
-41.3000,174.7833,Wellington,Wellington,New Zealand,Soccer,10
-33.9167,151.1833,Saint Peters,New South Wales,Australia,Soccer,15
-33.9668,151.1000,Hurstville Grove,New South Wales,Australia,Australian Rules,6
-46.1500,168.3333,Winton,Southland,New Zealand,Rugby League,1
-41.1703,174.9949,Lower Hutt,Wellington,New Zealand,Tennis,7
-34.8500,138.4667,Adelaide,South Australia,Australia,Rugby League,3
-27.4138,152.9470,Keperra,Queensland,Australia,Cricket,16
-33.8167,150.9833,Westmead,New South Wales,Australia,Rugby Union,14
-35.3050,149.1412,Barton,Australian Capital Territory,Australia,Australian Rules,3
-37.9555,176.9225,Whakatane,Bay of Plenty,New Zealand,Rugby League,11
-45.8792,170.4720,Dunedin,Otago,New Zealand,Rugby Union,16
-37.7168,145.1167,Briar Hill,Victoria,Australia,Tennis,10
-33.7666,151.2498,Allambie Heights,New South Wales,Australia,Australian Rules,58
-34.0026,151.0959,Sylvania,New South Wales,Australia,Rugby Union,35
-33.8615,151.1705,Rozelle,New South Wales,Australia,Rugby Union,43
-37.6667,145.1167,Plenty,Victoria,Australia,Tennis,1
-33.8883,151.1227,Ashfield,New South Wales,Australia,Rugby League,47
-33.8701,150.8612,Abbotsbury,New South Wales,Australia,Cricket,5
-27.6833,153.2167,Eagleby,Queensland,Australia,Australian Rules,61
-33.7828,150.7968,Colyton,New South Wales,Australia,Australian Rules,100
-43.2333,147.2833,Middleton,Tasmania,Australia,Cricket,2
-35.2000,138.4833,Seaford,South Australia,Australia,Rugby League,7
-33.7752,150.6655,Regentville,New South Wales,Australia,Rugby League,2
-31.8526,115.8810,Malaga,Western Australia,Australia,Cricket,4
-38.1500,145.6000,Garfield,Victoria,Australia,Tennis,4
-34.0500,151.1333,Woolooware,New South Wales,Australia,Tennis,2
-33.9000,150.9500,Chipping Norton,New South Wales,Australia,Rugby Union,8
-33.7103,150.3753,Wentworth Falls,New South Wales,Australia,Cricket,21
-34.8528,138.6433,Oakden,South Australia,Australia,Rugby Union,5
-31.9167,116.0833,Darlington,Western Australia,Australia,Rugby League,3
-35.5167,138.4167,Yankalilla,South Australia,Australia,Australian Rules,4
-37.2500,145.7000,Alexandra,Victoria,Australia,Tennis,5
-26.7115,153.1220,Parrearra,Queensland,Australia,Rugby League,15
-34.5310,146.3361,Leeton,New South Wales,Australia,Rugby League,2
-27.3171,153.0310,Bracken Ridge,Queensland,Australia,Rugby Union,49
-34.5833,148.0833,Jindalee,New South Wales,Australia,Australian Rules,3
-17.1368,145.4172,Walkamin,Queensland,Australia,Tennis,3
-33.7983,151.0905,Denistone,New South Wales,Australia,Soccer,2
-33.9465,151.0692,Narwee,New South Wales,Australia,Tennis,40
-33.8328,151.1898,Wollstonecraft,New South Wales,Australia,Cricket,24
-12.3912,130.8905,Darwin,Northern Territory,Australia,Soccer,13
-38.1567,144.5551,Clifton Springs,Victoria,Australia,Tennis,22
-38.0833,145.1333,Carrum North,Victoria,Australia,Tennis,20
-36.9647,174.9241,Auckland,Auckland,New Zealand,Cricket,9
-35.2629,174.1227,Russell,Northland,New Zealand,Soccer,3
-37.2735,175.4893,Ngatea,Waikato,New Zealand,Soccer,2
-27.4982,153.0004,Saint Lucia,Queensland,Australia,Rugby Union,16
-31.3894,116.0789,Bindoon,Western Australia,Australia,Soccer,1
-36.1218,146.8881,Wodonga,Victoria,Australia,Soccer,11
-36.9155,174.7991,Auckland,Auckland,New Zealand,Tennis,37
-42.7667,147.2500,Claremont,Tasmania,Australia,Tennis,19
-45.8962,170.5368,Dunedin,Otago,New Zealand,Tennis,10
-37.8877,145.0952,Chadstone,Victoria,Australia,Australian Rules,167
-33.8000,151.0500,Rydalmere,New South Wales,Australia,Soccer,58
-37.7833,144.8833,Maribyrnong,Victoria,Australia,Soccer,38
-37.8696,144.8304,Altona,Victoria,Australia,Cricket,179
-33.8892,150.8514,Cecil Hills,New South Wales,Australia,Australian Rules,30
-33.4333,151.3833,Erina East,New South Wales,Australia,Rugby League,42
-37.7849,175.2760,Hamilton,Waikato,New Zealand,Cricket,46
-36.8989,174.5918,Auckland,Auckland,New Zealand,Soccer,74
-27.2143,153.0468,Rothwell,Queensland,Australia,Australian Rules,16
-37.9561,145.0932,Heatherton,Victoria,Australia,Cricket,13
-34.0698,150.8417,Ruse,New South Wales,Australia,Australian Rules,15
-35.2168,149.0833,Belconnen,Australian Capital Territory,Australia,Tennis,33
-38.3667,144.8167,Rye,Victoria,Australia,Cricket,18
-32.4059,115.7585,Secret Harbour,Western Australia,Australia,Cricket,6
-33.9833,151.0667,Oatley,New South Wales,Australia,Tennis,7
-37.6667,145.1500,Upper Diamond Creek,Victoria,Australia,Soccer,20
-34.9320,138.5643,Hilton,South Australia,Australia,Australian Rules,8
-43.1297,147.2474,Kettering,Tasmania,Australia,Tennis,2
-33.7301,150.8222,Bidwill,New South Wales,Australia,Rugby Union,4
-38.2654,144.5147,Barwon Heads,Victoria,Australia,Rugby Union,5
-33.7482,150.8927,Marayong,New South Wales,Australia,Soccer,7
-41.4833,147.1707,Youngtown,Tasmania,Australia,Australian Rules,17
-27.4255,153.0010,Alderley,Queensland,Australia,Rugby Union,25
-32.0525,115.8878,Willetton,Western Australia,Australia,Tennis,16
-26.6816,153.1192,Mooloolaba,Queensland,Australia,Rugby League,23
-30.2833,153.0000,Upper Orara,New South Wales,Australia,Australian Rules,2
-27.3426,153.0444,Taigum,Queensland,Australia,Soccer,29
-27.2167,152.8333,Samford,Queensland,Australia,Rugby League,17
-37.8809,144.9855,Elwood,Victoria,Australia,Rugby League,61
-37.8167,144.7500,Truganina,Victoria,Australia,Tennis,19
-44.3864,171.2285,Timaru,Canterbury,New Zealand,Tennis,13
-32.7738,151.6010,Maitland,New South Wales,Australia,Cricket,2
-32.0000,115.7667,Cottesloe,Western Australia,Australia,Soccer,28
-28.0441,153.4347,Mermaid Beach,Queensland,Australia,Cricket,8
-24.9162,152.4899,Elliott Heads,Queensland,Australia,Tennis,1
-37.6850,176.1682,Tauranga,Bay of Plenty,New Zealand,Rugby Union,13
-33.4756,151.3521,Saratoga,New South Wales,Australia,Rugby Union,1
-33.9333,150.7333,Bringelly,New South Wales,Australia,Soccer,54
-34.9833,138.5167,Glenelg,South Australia,Australia,Tennis,64
-28.0167,153.4000,Surfers Paradise,Queensland,Australia,Tennis,38
-33.6785,150.6121,Winmalee,New South Wales,Australia,Soccer,28
-36.8981,174.9308,Auckland,Auckland,New Zealand,Soccer,36
-43.5565,172.6024,Christchurch,Canterbury,New Zealand,Rugby Union,25
-28.0139,153.3331,Highland Park,Queensland,Australia,Cricket,4
-34.5887,150.8725,Shell Cove,New South Wales,Australia,Rugby League,9
-36.7932,175.0362,Auckland,Auckland,New Zealand,Soccer,3
-27.4224,153.0420,Wooloowin,Queensland,Australia,Tennis,45
-36.9500,144.7333,Heathcote,Victoria,Australia,Cricket,7
-37.4833,145.0833,Whittlesea,Victoria,Australia,Soccer,37
-37.7667,145.0833,Bulleen,Victoria,Australia,Rugby League,15
-33.9289,151.0511,Punchbowl,New South Wales,Australia,Australian Rules,105
-33.8799,151.1623,Newtown,New South Wales,Australia,Australian Rules,71
-37.7900,144.9226,Kensington,Victoria,Australia,Soccer,61
-35.3246,149.0776,Curtin,Australian Capital Territory,Australia,Soccer,21
-33.8878,151.2368,Woollahra,New South Wales,Australia,Rugby League,37
-37.0833,144.5167,Kyneton,Victoria,Australia,Tennis,10
-37.7500,145.0667,Rosanna,Victoria,Australia,Tennis,19
-34.2500,150.9833,Helensburgh,New South Wales,Australia,Rugby League,26
-34.4867,150.8750,Lake Heights,New South Wales,Australia,Soccer,6
-41.1303,174.8787,Porirua,Wellington,New Zealand,Australian Rules,4
-34.8545,150.6167,Nowra,New South Wales,Australia,Rugby Union,7
-33.7928,151.2125,Middle Cove,New South Wales,Australia,Cricket,1
-37.9000,145.0667,Murrumbeena,Victoria,Australia,Cricket,39
-33.8225,151.2158,Cammeray,New South Wales,Australia,Tennis,46
-34.0375,150.8136,Eagle Vale,New South Wales,Australia,Cricket,13
-33.6326,150.2863,Blackheath,New South Wales,Australia,Soccer,9
-32.3161,115.7546,Waikiki,Western Australia,Australia,Tennis,2
-26.8067,152.9610,Landsborough,Queensland,Australia,Soccer,16
-34.9073,138.5914,Adelaide,South Australia,Australia,Tennis,93
-34.9276,138.6260,Rose Park,South Australia,Australia,Soccer,1
-32.5734,115.7613,Mandurah,Western Australia,Australia,Rugby League,12
-33.4333,151.3500,East Gosford,New South Wales,Australia,Rugby League,16
-30.2667,152.0167,Aberfoyle,New South Wales,Australia,Australian Rules,5
-32.2677,115.7993,Wellard,Western Australia,Australia,Cricket,7
-34.6652,137.5887,Minlaton,South Australia,Australia,Soccer,2
-33.8167,151.0886,Meadowbank,New South Wales,Australia,Australian Rules,16
-31.9172,115.9380,Bassendean,Western Australia,Australia,Tennis,35
-34.3555,150.8943,Woonona,New South Wales,Australia,Rugby League,34
-36.8810,174.6347,Auckland,Auckland,New Zealand,Cricket,3
-27.4482,153.0134,Kelvin Grove,Queensland,Australia,Australian Rules,75
-37.7500,145.3500,Lilydale,Victoria,Australia,Australian Rules,37
-34.9287,138.5986,Adelaide,South Australia,Australia,Australian Rules,2098
-27.9565,153.3345,Gaven,Queensland,Australia,Soccer,17
-31.9500,115.8667,Perth,Western Australia,Australia,Tennis,162
-27.4765,152.9966,Toowong,Queensland,Australia,Tennis,27
-27.4710,153.0243,,Queensland,Australia,Soccer,1365
-31.8276,115.8650,Perth,Western Australia,Australia,Cricket,105
-33.8603,151.2016,Sydney,New South Wales,Australia,Soccer,2900
-37.8895,145.0581,Carnegie,Victoria,Australia,Soccer,980
-32.0248,115.9599,Beckenham,Western Australia,Australia,Rugby League,28
-34.6000,138.9167,Lyndoch,South Australia,Australia,Soccer,19
-35.1333,138.5167,Morphett Vale,South Australia,Australia,Tennis,72
-37.8139,144.9634,,Victoria,Australia,Soccer,668
-35.0167,138.5167,Brighton,South Australia,Australia,Cricket,15
-27.8167,153.3000,Pimpama,Queensland,Australia,Cricket,10
-33.7378,151.0722,Thornleigh,New South Wales,Australia,Tennis,55
-27.6500,153.0333,Browns Plains,Queensland,Australia,Tennis,157
-34.8500,138.6500,Gilles Plains,South Australia,Australia,Australian Rules,189
-37.8826,144.7003,Hoppers Crossing,Victoria,Australia,Soccer,176
-33.4244,151.3440,Gosford,New South Wales,Australia,Australian Rules,103
-31.8958,115.7643,Scarborough,Western Australia,Australia,Tennis,76
-37.6333,144.8667,Glenvale,Victoria,Australia,Cricket,43
-33.9167,150.8500,West Hoxton,New South Wales,Australia,Rugby League,48
-28.0590,153.3872,Robina,Queensland,Australia,Rugby League,36
-27.5167,153.1833,Capalaba,Queensland,Australia,Soccer,51
-32.2493,152.5162,Green Point,New South Wales,Australia,Australian Rules,3
-28.0003,153.4309,Gold Coast,Queensland,Australia,Australian Rules,207
-27.5999,152.7713,Ipswich,Queensland,Australia,Cricket,411
-37.9184,145.0358,Bentleigh,Victoria,Australia,Australian Rules,187
-37.7603,144.9502,Brunswick East,Victoria,Australia,Cricket,345
-38.0331,145.1795,Dandenong West,Victoria,Australia,Australian Rules,1404
-28.8949,153.4304,Alstonville,New South Wales,Australia,Rugby League,11
-37.8771,145.1294,Mount Waverley,Victoria,Australia,Soccer,202
-37.7945,145.2389,Ringwood,Victoria,Australia,Tennis,525
-33.7333,151.0000,Castle Hill,New South Wales,Australia,Tennis,156
-27.4765,152.9966,Auchenflower,Queensland,Australia,Rugby League,52
-27.5133,152.9752,Chelmer,Queensland,Australia,Australian Rules,6
-37.8891,145.1740,Glen Waverley,Victoria,Australia,Soccer,159
-27.1575,152.9576,Burpengary,Queensland,Australia,Soccer,125
-27.5507,152.9590,Seventeen Mile Rocks,Queensland,Australia,Tennis,8
-23.2042,117.6697,Paraburdoo,Western Australia,Australia,Tennis,82
-33.7714,150.9021,Blacktown,New South Wales,Australia,Soccer,254
-27.9079,153.2566,Oxenford,Queensland,Australia,Tennis,16
-36.8641,174.7621,Auckland,Auckland,New Zealand,Rugby League,319
-31.8523,115.7826,Carine,Western Australia,Australia,Soccer,16
-35.2119,149.0689,Evatt,Australian Capital Territory,Australia,Soccer,28
-35.1339,139.3678,Murray Bridge,South Australia,Australia,Australian Rules,37
-33.8404,151.0896,Rhodes,New South Wales,Australia,Rugby League,41
-37.9000,145.0333,Ormond,Victoria,Australia,Australian Rules,182
-37.6874,144.8868,Tullamarine,Victoria,Australia,Soccer,227
-33.9289,151.0511,Punchbowl,New South Wales,Australia,Rugby League,199
-33.9833,151.0667,Oatley,New South Wales,Australia,Soccer,24
-12.4305,130.8414,Parap,Northern Territory,Australia,Tennis,4
-27.6667,153.1167,Kingston,Queensland,Australia,Soccer,141
-27.5262,153.0605,Brisbane,Queensland,Australia,Rugby Union,73
-27.4736,153.1270,Tingalpa,Queensland,Australia,Soccer,19
-33.7500,150.6667,Emu Plains,New South Wales,Australia,Tennis,40
-34.8520,138.5216,Rosewater,South Australia,Australia,Soccer,30
-28.8732,152.9852,Casino,New South Wales,Australia,Australian Rules,15
-33.7061,150.9088,The Ponds,New South Wales,Australia,Rugby League,183
-37.9000,144.6667,Werribee,Victoria,Australia,Cricket,60
-37.8149,144.9505,Docklands,Victoria,Australia,Australian Rules,166
-37.7168,144.8333,Keilor,Victoria,Australia,Australian Rules,224
-37.9367,145.0342,Moorabbin,Victoria,Australia,Australian Rules,191
-34.9695,138.5526,Plympton,South Australia,Australia,Tennis,56
-39.0725,174.0554,New Plymouth,Taranaki,New Zealand,Cricket,26
-26.9667,152.9667,Beerburrum,Queensland,Australia,Soccer,5
-37.7500,145.1167,Templestowe,Victoria,Australia,Tennis,52
-38.0263,145.3069,Narre Warren,Victoria,Australia,Soccer,189
-33.7907,150.6693,Glenmore Park,New South Wales,Australia,Tennis,45
-31.9810,115.8696,Perth,Western Australia,Australia,Soccer,270
-31.9853,115.8052,Nedlands,Western Australia,Australia,Soccer,69
-32.5431,115.6967,Halls Head,Western Australia,Australia,Australian Rules,10
-33.8874,151.1243,Ashfield,New South Wales,Australia,Soccer,306
-27.9741,153.3607,Molendinar,Queensland,Australia,Rugby Union,6
-37.9333,145.3000,Lysterfield,Victoria,Australia,Rugby League,22
-27.5975,152.7475,Brassall,Queensland,Australia,Cricket,31
-32.0833,116.0000,Gosnells,Western Australia,Australia,Rugby League,31
-43.5225,172.5813,Christchurch,Canterbury,New Zealand,Soccer,48
-37.8416,145.0177,Toorak,Victoria,Australia,Rugby League,107
-34.6763,138.6620,Andrews Farm,South Australia,Australia,Soccer,35
-38.0592,145.4095,Officer,Victoria,Australia,Tennis,3
-23.8568,151.2713,Gladstone,Queensland,Australia,Soccer,34
-27.1167,152.8833,Upper Caboolture,Queensland,Australia,Rugby League,10
-31.9875,115.7861,Claremont,Western Australia,Australia,Cricket,15
-33.7333,151.1000,Wahroonga,New South Wales,Australia,Cricket,127
-31.5468,115.6317,Yanchep,Western Australia,Australia,Cricket,5
-33.8279,151.2333,Mosman,New South Wales,Australia,Soccer,117
-33.9332,151.1111,Earlwood,New South Wales,Australia,Tennis,49
-37.7461,144.7686,Saint Albans,Victoria,Australia,Tennis,101
-33.8167,150.9667,Wentworthville,New South Wales,Australia,Soccer,227
-37.9833,145.0667,Mentone,Victoria,Australia,Rugby Union,51
-40.8500,145.2500,Forest,Tasmania,Australia,Rugby League,48
-23.8568,151.2713,Gladstone,Queensland,Australia,Australian Rules,19
-27.4551,153.0613,Bulimba,Queensland,Australia,Tennis,27
-33.6576,150.9476,Kenthurst,New South Wales,Australia,Australian Rules,38
-27.6221,153.0661,Stretton,Queensland,Australia,Cricket,23
-27.1281,153.0524,Caboolture,Queensland,Australia,Cricket,62
-27.6672,152.7487,Deebing Heights,Queensland,Australia,Cricket,9
-28.0167,153.4000,Surfers Paradise,Queensland,Australia,Soccer,64
-33.9014,150.9637,Lansvale,New South Wales,Australia,Soccer,2
-35.0500,138.8833,Little Hampton,South Australia,Australia,Australian Rules,24
-32.1167,115.7667,Coogee,Western Australia,Australia,Tennis,9
-32.0248,115.9599,Beckenham,Western Australia,Australia,Cricket,46
-32.3151,115.7777,Cooloongup,Western Australia,Australia,Cricket,3
-33.5000,151.3167,Woy Woy,New South Wales,Australia,Rugby League,43
-33.8536,151.1542,Drummoyne,New South Wales,Australia,Soccer,240
-37.7099,144.7548,Taylors Hill,Victoria,Australia,Soccer,46
-36.7443,174.6947,Auckland,Auckland,New Zealand,Cricket,40
-42.8795,147.3190,Sandy Bay,Tasmania,Australia,Australian Rules,80
-33.8866,150.9480,Canley Vale,New South Wales,Australia,Australian Rules,3
-37.8000,144.9833,Collingwood,Victoria,Australia,Tennis,138
-41.2128,174.8499,Wellington,Wellington,New Zealand,Tennis,5
-32.3857,152.5041,Smiths Lake,New South Wales,Australia,Rugby League,2
-37.8399,145.0352,Malvern,Victoria,Australia,Soccer,124
-31.7624,115.7589,Heathridge,Western Australia,Australia,Soccer,32
-33.9500,151.1500,Brighton-Le-Sands,New South Wales,Australia,Cricket,15
-33.5000,151.0667,Glenorie,New South Wales,Australia,Tennis,20
-32.0689,147.4528,Wyoming,New South Wales,Australia,Tennis,37
-33.8380,150.6496,Mulgoa,New South Wales,Australia,Tennis,10
-27.6233,153.0479,Calamvale,Queensland,Australia,Tennis,52
-36.8585,174.7053,Auckland,Auckland,New Zealand,Soccer,54
-27.0837,153.1594,Bongaree,Queensland,Australia,Soccer,18
-38.1717,146.2926,Newborough,Victoria,Australia,Australian Rules,22
-33.8406,151.2072,Sydney,New South Wales,Australia,Rugby Union,13
-27.5220,152.9822,Graceville,Queensland,Australia,Cricket,19
-37.8167,144.7500,Truganina,Victoria,Australia,Australian Rules,48
-27.3667,153.0167,Aspley,Queensland,Australia,Australian Rules,45
-27.6333,153.2333,Mount Cotton,Queensland,Australia,Australian Rules,25
-33.8928,151.2041,Redfern,New South Wales,Australia,Soccer,254
-40.3326,175.6300,Palmerston North,Manawatu-Wanganui,New Zealand,Soccer,23
-37.7596,144.8974,Essendon,Victoria,Australia,Tennis,114
-27.6500,153.1500,Slacks Creek,Queensland,Australia,Australian Rules,18
-28.1000,153.4500,Burleigh Heads,Queensland,Australia,Rugby League,39
-26.7667,153.0167,Glenview,Queensland,Australia,Rugby League,17
-34.5913,138.7397,Gawler,South Australia,Australia,Tennis,27
-33.8167,151.1667,Lane Cove,New South Wales,Australia,Australian Rules,115
-27.4167,153.1667,Wynnum,Queensland,Australia,Soccer,51
-27.2833,153.0000,Strathpine,Queensland,Australia,Soccer,25
-33.6576,150.9476,Kenthurst,New South Wales,Australia,Rugby League,73
-33.9668,151.0833,Mortdale,New South Wales,Australia,Rugby League,115
-34.9180,138.6869,Magill,South Australia,Australia,Soccer,44
-34.6637,138.6412,Penfield,South Australia,Australia,Australian Rules,2
-37.8046,144.9998,Abbotsford,Victoria,Australia,Cricket,101
-27.2290,152.4719,Esk,Queensland,Australia,Soccer,3
-32.1207,115.8162,Yangebup,Western Australia,Australia,Rugby League,3
-34.4167,150.5167,Alpine,New South Wales,Australia,Rugby League,2
-28.1756,153.5420,Tweed Heads,New South Wales,Australia,Soccer,82
-27.6434,153.0298,Parkinson,Queensland,Australia,Rugby Union,15
-31.9522,115.8614,,Western Australia,Australia,Tennis,50
-32.7500,151.5833,Maitland,New South Wales,Australia,Rugby League,35
-33.6552,151.3213,Newport,New South Wales,Australia,Rugby League,11
-28.0667,153.2667,Advancetown,Queensland,Australia,Australian Rules,3
-33.8719,151.0310,Lidcombe,New South Wales,Australia,Tennis,157
-32.7168,151.5333,Rutherford,New South Wales,Australia,Rugby League,45
-41.3053,174.7790,Wellington,Wellington,New Zealand,Tennis,36
-37.8362,145.1943,Vermont,Victoria,Australia,Rugby League,54
-34.6564,150.8540,Kiama,New South Wales,Australia,Rugby League,5
-33.8667,151.2167,Potts Point,New South Wales,Australia,Rugby League,17
-13.0655,143.4047,Nundah,Queensland,Australia,Rugby Union,19
-27.0837,153.1324,Sandstone Point,Queensland,Australia,Cricket,8
-37.7494,144.7530,Caroline Springs,Victoria,Australia,Tennis,125
-26.6172,153.0367,Nambour,Queensland,Australia,Cricket,10
-34.0841,150.5398,Camden West,New South Wales,Australia,Soccer,58
-32.9028,151.6907,New Lambton,New South Wales,Australia,Cricket,22
-37.7667,145.0833,Bulleen,Victoria,Australia,Rugby Union,7
-34.9180,138.5470,Underdale,South Australia,Australia,Australian Rules,7
-27.5123,153.0325,Annerley,Queensland,Australia,Rugby League,59
-36.8768,174.8042,Auckland,Auckland,New Zealand,Tennis,46
-37.5333,143.8667,Ballarat,Victoria,Australia,Rugby League,2
-30.8326,121.4900,Kalgoorlie,Western Australia,Australia,Soccer,14
-27.4889,153.1651,Wakerley,Queensland,Australia,Rugby League,10
-32.0000,115.9167,Bentley,Western Australia,Australia,Soccer,206
-31.9522,115.8614,Perth,Western Australia,Australia,Australian Rules,2721
-31.9522,115.8614,Perth,Western Australia,Australia,Soccer,2369
-31.9500,115.8667,Perth,Western Australia,Australia,Rugby Union,127
-12.5171,130.9836,Bellamack,Northern Territory,Australia,Rugby League,2
-34.6763,138.6620,Andrews Farm,South Australia,Australia,Australian Rules,66
-33.8667,150.9500,Fairfield,New South Wales,Australia,Soccer,232
-33.8235,150.9461,Greystanes,New South Wales,Australia,Cricket,68
-33.8428,150.9006,Wetherill Park,New South Wales,Australia,Soccer,103
-33.8000,151.0833,Eastwood,New South Wales,Australia,Soccer,216
-33.8794,151.2193,Darlinghurst,New South Wales,Australia,Rugby League,484
-23.2042,117.6697,Paraburdoo,Western Australia,Australia,Rugby Union,46
-38.1667,145.1667,Langwarrin,Victoria,Australia,Tennis,181
-27.1935,153.0263,Deception Bay,Queensland,Australia,Rugby Union,35
-27.2925,152.9678,Bray Park,Queensland,Australia,Tennis,248
-37.7000,145.0167,Reservoir,Victoria,Australia,Tennis,177
-37.7333,145.2667,Wonga Park,Victoria,Australia,Rugby Union,12
-33.8389,151.2167,Neutral Bay,New South Wales,Australia,Rugby Union,39
-27.5424,153.0912,Brisbane,Queensland,Australia,Cricket,141
-33.7378,151.0722,Pennant Hills,New South Wales,Australia,Rugby League,1065
-33.7413,150.9546,Bella Vista,New South Wales,Australia,Rugby League,113
-34.6128,150.3208,Exeter,New South Wales,Australia,Australian Rules,2
-32.8333,151.3667,Cessnock,New South Wales,Australia,Australian Rules,33
-34.3052,150.9334,Thirroul,New South Wales,Australia,Rugby Union,4
-37.7375,144.8921,Niddrie,Victoria,Australia,Rugby League,302
-27.5167,153.1833,Capalaba,Queensland,Australia,Rugby League,47
-27.2008,153.1103,Scarborough,Queensland,Australia,Tennis,218
-33.8719,151.0310,Lidcombe,New South Wales,Australia,Rugby Union,55
-37.8139,144.9634,,Victoria,Australia,Australian Rules,890
-38.2000,144.3500,Grovedale,Victoria,Australia,Tennis,29
-33.8748,151.2280,Rushcutters Bay,New South Wales,Australia,Soccer,14
-37.7904,144.9975,North Fitzroy,Victoria,Australia,Tennis,58
-37.9457,145.1581,Springvale,Victoria,Australia,Soccer,73
-38.0331,145.1795,Dandenong West,Victoria,Australia,Rugby League,322
-33.8344,151.1293,Gladesville,New South Wales,Australia,Soccer,206
-38.1800,144.3676,Breakwater,Victoria,Australia,Australian Rules,17
-34.4500,150.8833,Wollongong,New South Wales,Australia,Australian Rules,78
-41.0000,174.0000,,,New Zealand,Cricket,747
-37.8333,144.9833,South Yarra,Victoria,Australia,Soccer,649
-24.9167,152.4833,Springfield,Queensland,Australia,Soccer,47
-33.8928,151.2472,Bondi,New South Wales,Australia,Rugby League,51
-34.7657,138.7138,Greenwith,South Australia,Australia,Soccer,6
-37.8511,144.9932,Prahran,Victoria,Australia,Australian Rules,319
-33.8500,151.0333,Auburn,New South Wales,Australia,Rugby League,398
-37.8771,145.1294,Mount Waverley,Victoria,Australia,Australian Rules,290
-33.8874,151.1243,Ashfield,New South Wales,Australia,Australian Rules,156
-38.1392,145.2684,Cranbourne,Victoria,Australia,Rugby League,82
-34.0159,150.6785,Cobbitty,New South Wales,Australia,Soccer,5
-33.9451,151.2258,Eastgardens,New South Wales,Australia,Rugby League,28
-37.8064,145.0309,Kew,Victoria,Australia,Soccer,378
-27.5500,153.2667,Thornlands,Queensland,Australia,Soccer,28
-27.4673,153.0732,Morningside,Queensland,Australia,Rugby League,20
-27.8667,152.9833,Cedar Grove,Queensland,Australia,Australian Rules,5
-33.9000,151.0500,Chullora,New South Wales,Australia,Rugby League,5
-27.0650,153.1431,Bellara,Queensland,Australia,Soccer,16
-27.6167,152.8000,Bundamba,Queensland,Australia,Soccer,32
-34.0833,151.1500,Cronulla,New South Wales,Australia,Soccer,99
-34.9259,138.4955,Henley Beach South,South Australia,Australia,Australian Rules,8
-37.8161,144.8415,Footscray,Victoria,Australia,Soccer,22
-28.0003,153.4309,Gold Coast,Queensland,Australia,Rugby League,273
-32.9081,151.7312,Waratah,New South Wales,Australia,Rugby Union,5
-33.2677,151.4225,Watanobbi,New South Wales,Australia,Tennis,9
-33.7220,151.0461,Cherrybrook,New South Wales,Australia,Tennis,91
-43.0167,147.3167,Blackmans Bay,Tasmania,Australia,Soccer,10
-36.8500,174.7650,Auckland,Auckland,New Zealand,Rugby League,199
-27.6333,153.2333,Mount Cotton,Queensland,Australia,Rugby League,45
-30.7295,150.6539,Manilla,New South Wales,Australia,Soccer,1
-27.3981,152.9580,Arana Hills,Queensland,Australia,Tennis,12
-34.0167,151.0333,Woronora Dam,New South Wales,Australia,Rugby League,29
-37.7891,145.1749,Donvale,Victoria,Australia,Rugby Union,9
-37.7204,145.0698,Macleod,Victoria,Australia,Cricket,43
-37.8000,144.9833,Collingwood,Victoria,Australia,Australian Rules,334
-37.8005,144.9684,Carlton,Victoria,Australia,Soccer,256
-33.6886,151.2953,Warriewood,New South Wales,Australia,Rugby League,88
-43.4957,172.5679,Christchurch,Canterbury,New Zealand,Soccer,46
-36.9559,174.8184,Auckland,Auckland,New Zealand,Rugby League,26
-33.8167,150.9667,Wentworthville,New South Wales,Australia,Australian Rules,135
-34.0333,151.0667,Sutherland,New South Wales,Australia,Tennis,28
-37.7984,144.9449,North Melbourne,Victoria,Australia,Australian Rules,283
-34.7780,137.8608,Port Vincent,South Australia,Australia,Australian Rules,9
-37.0672,144.2168,Castlemaine,Victoria,Australia,Australian Rules,28
-38.1900,144.4682,Leopold,Victoria,Australia,Australian Rules,82
-37.5500,143.8667,Black Hill,Victoria,Australia,Cricket,11
-33.2632,151.5394,Toukley,New South Wales,Australia,Cricket,6
-33.7913,151.1298,Ryde,New South Wales,Australia,Cricket,21
-32.5734,115.7613,Mandurah,Western Australia,Australia,Rugby Union,9
-32.0580,115.9181,Canning Vale,Western Australia,Australia,Rugby Union,31
-32.7000,151.6000,Largs,New South Wales,Australia,Rugby League,6
-27.2520,152.9923,Kallangur,Queensland,Australia,Rugby League,39
-27.9440,153.3981,Labrador,Queensland,Australia,Rugby Union,15
-33.7500,150.7500,Kingswood,New South Wales,Australia,Tennis,25
-33.5068,150.6768,Kurrajong Heights,New South Wales,Australia,Rugby League,43
-37.7876,145.1489,Doncaster East,Victoria,Australia,Australian Rules,164
-33.7502,150.9354,Seven Hills,New South Wales,Australia,Rugby League,48
-35.2446,149.1447,Downer,Australian Capital Territory,Australia,Australian Rules,12
-33.7764,150.9805,Winston Hills,New South Wales,Australia,Tennis,49
-37.6260,144.7188,Diggers Rest,Victoria,Australia,Australian Rules,23
-27.5030,152.9752,Indooroopilly,Queensland,Australia,Rugby Union,13
-27.0167,152.9500,Elimbah,Queensland,Australia,Australian Rules,18
-27.9440,153.3981,Labrador,Queensland,Australia,Tennis,43
-33.7061,150.9088,The Ponds,New South Wales,Australia,Cricket,94
-19.3068,146.8139,Idalia,Queensland,Australia,Rugby League,3
-27.3122,152.9498,Warner,Queensland,Australia,Tennis,46
-35.3164,150.4361,Milton,New South Wales,Australia,Soccer,6
-33.8867,151.1975,Chippendale,New South Wales,Australia,Soccer,119
-33.9393,151.0993,Kingsgrove,New South Wales,Australia,Cricket,27
-37.7759,144.8014,Ardeer,Victoria,Australia,Australian Rules,26
-33.8833,151.1167,Croydon,New South Wales,Australia,Australian Rules,75
-37.6833,145.0167,Thomastown,Victoria,Australia,Soccer,97
-42.7667,147.2500,Claremont,Tasmania,Australia,Australian Rules,28
-33.8925,151.0207,Birrong,New South Wales,Australia,Australian Rules,20
-37.8500,145.2667,Bayswater,Victoria,Australia,Rugby League,63
-37.9431,145.1060,Clayton North,Victoria,Australia,Rugby League,31
-27.4445,153.0185,Herston,Queensland,Australia,Australian Rules,27
-33.8928,151.2472,Bondi,New South Wales,Australia,Australian Rules,27
-27.4224,153.0420,Wooloowin,Queensland,Australia,Rugby League,62
-33.5167,151.3500,Umina,New South Wales,Australia,Soccer,125
-33.9385,150.8488,Carnes Hill,New South Wales,Australia,Rugby League,30
-33.9022,151.2004,Alexandria,New South Wales,Australia,Cricket,179
-33.8227,150.9239,Pemulwuy,New South Wales,Australia,Soccer,15
-27.2073,153.1013,Redcliffe,Queensland,Australia,Cricket,29
-35.2582,149.0804,Aranda,Australian Capital Territory,Australia,Soccer,10
-36.9373,174.8935,Auckland,Auckland,New Zealand,Cricket,18
-36.8917,174.8071,Auckland,Auckland,New Zealand,Tennis,26
-27.8704,153.3516,Hope Island,Queensland,Australia,Rugby League,36
-27.5667,152.9667,Darra,Queensland,Australia,Rugby League,9
-32.0167,115.9500,Cannington,Western Australia,Australia,Cricket,61
-33.9188,150.8631,Hinchinbrook,New South Wales,Australia,Soccer,53
-33.8167,151.0886,Meadowbank,New South Wales,Australia,Rugby League,31
-36.9784,174.7817,Auckland,Auckland,New Zealand,Soccer,48
-32.9480,151.7433,Merewether,New South Wales,Australia,Rugby League,28
-27.7167,153.2000,Beenleigh,Queensland,Australia,Soccer,29
-33.7588,150.9929,Baulkham Hills,New South Wales,Australia,Tennis,199
-37.9770,145.2587,Endeavour Hills,Victoria,Australia,Cricket,65
-36.9158,174.6921,Auckland,Auckland,New Zealand,Tennis,49
-42.8296,147.3463,Lindisfarne,Tasmania,Australia,Soccer,41
-37.7320,144.9381,Pascoe Vale,Victoria,Australia,Soccer,144
-37.9014,145.0188,Brighton East,Victoria,Australia,Soccer,157
-33.7615,150.8737,Doonside,New South Wales,Australia,Rugby Union,27
-33.8229,151.0078,Harris Park,New South Wales,Australia,Soccer,29
-33.8500,151.1385,Chiswick,New South Wales,Australia,Australian Rules,7
-33.8833,151.1500,Leichhardt,New South Wales,Australia,Tennis,156
-33.8332,151.0198,Granville,New South Wales,Australia,Soccer,217
-28.0111,153.4048,Bundall,Queensland,Australia,Cricket,5
-33.2768,151.4021,Alison,New South Wales,Australia,Soccer,30
-31.9333,115.8333,Perth,Western Australia,Australia,Rugby League,5
-34.0667,151.0167,Engadine,New South Wales,Australia,Cricket,31
-38.4523,145.2386,Cowes,Victoria,Australia,Australian Rules,18
-27.3171,153.0310,Bracken Ridge,Queensland,Australia,Soccer,158
-32.2493,152.5162,Green Point,New South Wales,Australia,Rugby League,9
-31.8104,115.8008,Kingsley,Western Australia,Australia,Rugby League,22
-28.0859,153.4458,Little Burleigh,Queensland,Australia,Cricket,30
-30.2820,152.6100,Dorrigo,New South Wales,Australia,Australian Rules,2
-27.6500,153.1500,Slacks Creek,Queensland,Australia,Soccer,24
-35.0000,138.7000,Crafers,South Australia,Australia,Australian Rules,35
-37.7667,144.8333,Albion,Victoria,Australia,Soccer,139
-36.8630,174.7432,Auckland,Auckland,New Zealand,Cricket,68
-41.2881,173.3357,Nelson,Nelson,New Zealand,Soccer,23
-39.9401,175.0133,Wanganui,Manawatu-Wanganui,New Zealand,Soccer,4
-41.4598,147.0841,Launceston,Tasmania,Australia,Rugby Union,28
-36.8058,174.7083,Auckland,Auckland,New Zealand,Soccer,15
-26.9833,152.8000,DAguilar,Queensland,Australia,Australian Rules,4
-34.9668,139.2667,Caloote,South Australia,Australia,Cricket,1
-33.6131,150.8142,Windsor,New South Wales,Australia,Tennis,24
-33.8833,151.1167,Croydon,New South Wales,Australia,Soccer,170
-37.6674,145.1124,Plenty,Victoria,Australia,Soccer,10
-31.8723,115.7768,Karrinyup,Western Australia,Australia,Soccer,13
-28.9489,153.4651,Wardell,New South Wales,Australia,Cricket,2
-35.1333,138.5167,Morphett Vale,South Australia,Australia,Rugby Union,20
-27.4029,153.0297,Kedron,Queensland,Australia,Cricket,29
-37.8771,145.1294,Mount Waverley,Victoria,Australia,Tennis,144
-33.8235,150.9461,Greystanes,New South Wales,Australia,Rugby League,165
-33.8167,151.1833,Artarmon,New South Wales,Australia,Rugby Union,37
-37.7818,144.9666,Princes Hill,Victoria,Australia,Soccer,10
-33.8333,150.9833,Merrylands,New South Wales,Australia,Cricket,200
-27.4833,153.0000,West End,Queensland,Australia,Australian Rules,31
-27.4833,153.2167,Birkdale,Queensland,Australia,Australian Rules,36
-33.3500,151.4333,Berkeley Vale,New South Wales,Australia,Australian Rules,11
-28.0859,153.4458,Little Burleigh,Queensland,Australia,Soccer,33
-37.6727,144.4383,Bacchus Marsh,Victoria,Australia,Australian Rules,47
-37.9694,145.0481,Cheltenham,Victoria,Australia,Rugby Union,25
-33.9425,150.9377,Moorebank,New South Wales,Australia,Soccer,61
-37.7976,145.0538,Kew East,Victoria,Australia,Soccer,98
-41.3053,174.7790,Wellington,Wellington,New Zealand,Rugby Union,36
-37.8421,145.0694,Camberwell,Victoria,Australia,Soccer,319
-33.8615,151.2055,,New South Wales,Australia,Soccer,537
-33.8941,151.1642,Stanmore,New South Wales,Australia,Tennis,76
-37.9394,144.5427,Little River,Victoria,Australia,Cricket,5
-34.8844,138.6062,Nailsworth,South Australia,Australia,Rugby League,12
-33.5000,151.0667,Glenorie,New South Wales,Australia,Cricket,27
-33.2937,151.4015,Mardi,New South Wales,Australia,Cricket,16
-31.8878,115.9099,Morley,Western Australia,Australia,Rugby Union,3
-19.2833,146.8000,Aitkenvale,Queensland,Australia,Soccer,2
-35.2582,149.0804,Aranda,Australian Capital Territory,Australia,Cricket,5
-32.0751,115.8661,Leeming,Western Australia,Australia,Soccer,142
-37.9201,145.0599,Bentleigh East,Victoria,Australia,Cricket,83
-27.5667,151.4500,Pittsworth,Queensland,Australia,Soccer,3
-33.4000,138.8833,Hallett,South Australia,Australia,Soccer,27
-33.8761,151.1656,Lilyfield,New South Wales,Australia,Rugby League,21
-33.9160,150.8998,Ashcroft,New South Wales,Australia,Rugby League,22
-33.7615,150.8737,Doonside,New South Wales,Australia,Tennis,35
-33.8281,151.2017,Crows Nest,New South Wales,Australia,Rugby Union,55
-27.7167,152.8333,Ripley,Queensland,Australia,Rugby League,2
-33.7333,151.0000,Castle Hill,New South Wales,Australia,Rugby Union,77
-34.7500,149.6667,Baw Baw,New South Wales,Australia,Australian Rules,8
-33.6793,151.2936,Sydney,New South Wales,Australia,Australian Rules,8
-34.9123,138.6292,Stepney,South Australia,Australia,Australian Rules,39
-34.0167,151.0333,Woronora Dam,New South Wales,Australia,Australian Rules,17
-34.0833,151.1500,Cronulla,New South Wales,Australia,Cricket,43
-32.1436,115.8653,Atwell,Western Australia,Australia,Soccer,48
-33.9500,151.2333,Maroubra,New South Wales,Australia,Rugby Union,42
-33.6886,151.2953,Warriewood,New South Wales,Australia,Tennis,52
-37.8000,144.9833,Collingwood,Victoria,Australia,Rugby Union,35
-33.7666,151.2498,Allambie Heights,New South Wales,Australia,Rugby League,127
-45.9004,170.4259,Dunedin,Otago,New Zealand,Soccer,14
-34.9000,138.5333,Welland,South Australia,Australia,Rugby League,4
-34.6907,138.6686,Elizabeth,South Australia,Australia,Rugby Union,2
-33.8925,151.0207,Regents Park,New South Wales,Australia,Cricket,81
-31.8958,115.7643,Scarborough,Western Australia,Australia,Rugby Union,30
-33.4167,151.4167,Matcham,New South Wales,Australia,Rugby League,38
-31.8329,115.7759,Duncraig,Western Australia,Australia,Soccer,60
-33.8536,151.1542,Drummoyne,New South Wales,Australia,Tennis,129
-33.6833,151.1167,Mount Colah,New South Wales,Australia,Australian Rules,13
-37.8512,144.9620,Middle Park,Victoria,Australia,Australian Rules,13
-37.9000,145.0833,Hughesdale,Victoria,Australia,Rugby League,33
-35.2000,138.4833,Seaford,South Australia,Australia,Cricket,13
-36.9949,145.0401,Puckapunyal,Victoria,Australia,Australian Rules,7
-32.0675,115.7640,Fremantle City,Western Australia,Australia,Tennis,8
-33.8000,151.0500,Rydalmere,New South Wales,Australia,Australian Rules,45
-34.9561,138.7444,Uraidla,South Australia,Australia,Rugby Union,3
-33.9500,151.0500,Riverwood,New South Wales,Australia,Australian Rules,27
-33.7168,151.1500,Turramurra,New South Wales,Australia,Rugby League,14
-33.2430,151.5043,Lake Haven,New South Wales,Australia,Tennis,6
-37.9167,145.1333,Clayton North,Victoria,Australia,Rugby League,55
-35.1873,149.0965,Nicholls,Australian Capital Territory,Australia,Rugby League,26
-27.3086,151.6898,Acland,Queensland,Australia,Soccer,3
-33.8761,151.1656,Lilyfield,New South Wales,Australia,Australian Rules,13
-31.8276,115.8650,Alexander Heights,Western Australia,Australia,Soccer,10
-33.6131,150.8142,Windsor,New South Wales,Australia,Rugby Union,10
-30.3372,153.0697,Coffs Harbour,New South Wales,Australia,Rugby Union,5
-33.5000,151.3167,Woy Woy,New South Wales,Australia,Tennis,21
-27.2667,152.9833,Petrie,Queensland,Australia,Rugby Union,17
-37.8333,144.3667,Balliang,Victoria,Australia,Cricket,1
-37.7891,145.1749,Donvale,Victoria,Australia,Australian Rules,97
-37.8000,145.2333,Ringwood North,Victoria,Australia,Australian Rules,96
-27.6213,152.7877,Silkstone,Queensland,Australia,Rugby Union,2
-37.8667,144.6667,Tarneit,Victoria,Australia,Tennis,53
-34.7571,138.6082,Salisbury,South Australia,Australia,Cricket,100
-34.9618,138.6218,Highgate,South Australia,Australia,Soccer,3
-31.8550,115.8399,Balga,Western Australia,Australia,Rugby Union,17
-37.8511,144.9932,Prahran,Victoria,Australia,Soccer,256
-33.8333,151.1408,Hunters Hill,New South Wales,Australia,Rugby Union,47
-35.0167,138.6167,Blackwood,South Australia,Australia,Rugby League,9
-27.6153,152.9439,Brisbane,Queensland,Australia,Tennis,72
-38.2000,144.3667,Marshalltown,Victoria,Australia,Rugby League,4
-33.7413,150.9546,Bella Vista,New South Wales,Australia,Australian Rules,58
-37.8167,144.9000,Yarraville,Victoria,Australia,Cricket,42
-27.4167,153.1667,Wynnum,Queensland,Australia,Australian Rules,37
-33.8708,151.2389,Darling Point,New South Wales,Australia,Tennis,17
-38.1667,145.1667,Langwarrin,Victoria,Australia,Rugby Union,32
-33.7500,151.1500,Pymble,New South Wales,Australia,Tennis,22
-37.6874,144.8868,Tullamarine,Victoria,Australia,Australian Rules,128
-27.3400,152.9369,Eatons Hill,Queensland,Australia,Australian Rules,11
-37.8887,144.7260,Point Cook,Victoria,Australia,Cricket,206
-43.5565,172.6024,Christchurch,Canterbury,New Zealand,Soccer,46
-32.0833,116.0000,Gosnells,Western Australia,Australia,Australian Rules,90
-33.8986,150.9954,Bass Hill,New South Wales,Australia,Rugby League,165
-33.8810,151.0799,Strathfield,New South Wales,Australia,Cricket,252
-34.9073,138.5914,Adelaide,South Australia,Australia,Australian Rules,225
-37.9000,145.0667,Murrumbeena,Victoria,Australia,Australian Rules,90
-33.8332,151.0198,Granville,New South Wales,Australia,Rugby League,210
-31.8111,115.8281,Madeley,Western Australia,Australia,Soccer,15
-33.5000,151.3167,Woy Woy,New South Wales,Australia,Australian Rules,18
-38.0500,145.3667,Beaconsfield,Victoria,Australia,Tennis,27
-19.2500,146.8000,Townsville,Queensland,Australia,Cricket,30
-45.8839,170.3552,Dunedin,Otago,New Zealand,Cricket,2
-37.6833,144.9500,Campbellfield,Victoria,Australia,Australian Rules,32
-37.8826,144.7003,Hoppers Crossing,Victoria,Australia,Australian Rules,200
-33.8699,151.2025,Ultimo,New South Wales,Australia,Australian Rules,45
-37.8167,145.1000,Mont Albert,Victoria,Australia,Cricket,78
-30.3833,153.0667,Bonville,New South Wales,Australia,Soccer,2
-38.1943,145.0926,Mount Eliza,Victoria,Australia,Rugby Union,4
-32.0600,115.9550,Thornlie,Western Australia,Australia,Rugby Union,29
-37.6759,144.5969,Melton,Victoria,Australia,Cricket,49
-37.7833,145.3833,Mount Evelyn,Victoria,Australia,Soccer,30
-37.8296,145.0175,Richmond,Victoria,Australia,Australian Rules,541
-26.6172,153.0367,Nambour,Queensland,Australia,Tennis,17
-37.6500,145.0333,Epping,Victoria,Australia,Cricket,35
-37.8667,145.2833,Boronia,Victoria,Australia,Australian Rules,132
-28.1358,153.4493,Elanora,Queensland,Australia,Rugby League,15
-33.7136,151.1473,Turramurra,New South Wales,Australia,Cricket,20
-32.1207,115.8162,Yangebup,Western Australia,Australia,Australian Rules,13
-34.7665,149.6702,Run-o-Waters,New South Wales,Australia,Australian Rules,2
-33.5922,150.9198,Maraylya,New South Wales,Australia,Cricket,10
-33.9500,151.0333,Padstow,New South Wales,Australia,Tennis,74
-41.4760,147.1577,Launceston,Tasmania,Australia,Rugby League,16
-32.1000,115.7833,Spearwood,Western Australia,Australia,Soccer,15
-35.0000,138.7500,Bridgewater,South Australia,Australia,Australian Rules,26
-33.6999,150.9411,Kellyville,New South Wales,Australia,Rugby Union,133
-28.0167,153.4000,Surfers Paradise,Queensland,Australia,Rugby League,72
-31.7747,115.7627,Beldon,Western Australia,Australia,Cricket,8
-37.8535,145.1503,Burwood,Victoria,Australia,Cricket,30
-35.0937,138.5308,Reynella,South Australia,Australia,Australian Rules,30
-37.8500,145.2667,Bayswater,Victoria,Australia,Australian Rules,247
-35.0500,138.6167,Coromandel Valley,South Australia,Australia,Rugby League,12
-35.0794,138.5274,Sheidow Park,South Australia,Australia,Australian Rules,42
-34.5913,138.7397,Gawler,South Australia,Australia,Rugby Union,15
-33.7898,150.9562,Toongabbie West,New South Wales,Australia,Soccer,142
-27.8833,153.3000,Upper Coomera,Queensland,Australia,Cricket,47
-35.0167,138.5167,Brighton,South Australia,Australia,Soccer,23
-34.0500,151.1333,Caringbah,New South Wales,Australia,Cricket,58
-28.0215,153.3664,Carrara,Queensland,Australia,Tennis,8
-31.8406,115.8955,Ballajura,Western Australia,Australia,Australian Rules,43
-31.5468,115.6317,Yanchep,Western Australia,Australia,Soccer,10
-26.6546,153.0777,Maroochydore,Queensland,Australia,Australian Rules,16
-34.3000,150.9167,Austinmer,New South Wales,Australia,Tennis,11
-37.8626,145.0794,Ashburton,Victoria,Australia,Australian Rules,135
-37.9333,145.2333,Rowville,Victoria,Australia,Rugby League,83
-33.7301,150.8222,Bidwill,New South Wales,Australia,Cricket,8
-34.9833,138.5167,Glenelg,South Australia,Australia,Australian Rules,131
-37.8000,144.9000,Footscray,Victoria,Australia,Cricket,235
-33.9190,151.0894,Belmore,New South Wales,Australia,Rugby League,125
-35.1987,149.0644,Spence,Australian Capital Territory,Australia,Soccer,15
-33.4270,151.4132,Terrigal,New South Wales,Australia,Australian Rules,48
-34.8333,138.7000,Hope Valley,South Australia,Australia,Soccer,68
-33.7764,150.9805,Winston Hills,New South Wales,Australia,Rugby Union,32
-33.7198,150.3074,Katoomba,New South Wales,Australia,Soccer,27
-33.0000,151.6000,Toronto,New South Wales,Australia,Tennis,54
-37.7320,144.9381,Pascoe Vale,Victoria,Australia,Australian Rules,210
-41.2829,174.7842,Wellington,Wellington,New Zealand,Tennis,62
-37.9000,145.2333,Scoresby,Victoria,Australia,Soccer,50
-37.8833,145.3500,Sherbrook,Victoria,Australia,Australian Rules,12
-33.9160,150.8998,Ashcroft,New South Wales,Australia,Australian Rules,14
-32.9897,151.6364,Eleebana,New South Wales,Australia,Tennis,20
-37.8333,144.9667,Melbourne,Victoria,Australia,Rugby League,99
-32.0000,115.9167,Bentley,Western Australia,Australia,Cricket,86
-16.8769,145.7566,Cairns,Queensland,Australia,Soccer,34
-35.0500,138.8833,Little Hampton,South Australia,Australia,Soccer,16
-37.8117,145.0810,Balwyn,Victoria,Australia,Cricket,135
-33.7277,150.8474,Colebee,New South Wales,Australia,Cricket,7
-33.6333,151.1500,Berowra,New South Wales,Australia,Cricket,31
-38.3137,146.4182,Morwell,Victoria,Australia,Australian Rules,8
-31.9172,115.9380,Bassendean,Western Australia,Australia,Australian Rules,90
-33.7502,150.9354,Seven Hills,New South Wales,Australia,Australian Rules,16
-37.7333,145.2667,Wonga Park,Victoria,Australia,Tennis,50
-31.9352,115.7900,City Beach,Western Australia,Australia,Cricket,7
-31.8833,115.9667,Caversham,Western Australia,Australia,Soccer,20
-35.3720,149.0877,Torrens,Australian Capital Territory,Australia,Cricket,13
-33.8167,151.1667,Lane Cove,New South Wales,Australia,Tennis,124
-34.0165,150.8403,East Minto,New South Wales,Australia,Australian Rules,11
-34.0044,150.7725,Catherine Field,New South Wales,Australia,Rugby Union,2
-37.8833,145.4000,Monbulk,Victoria,Australia,Cricket,10
-33.9210,150.8847,Miller,New South Wales,Australia,Tennis,31
-38.2168,145.0333,Mornington,Victoria,Australia,Rugby League,38
-37.9058,145.0067,Brighton Beach,Victoria,Australia,Rugby Union,27
-33.7664,151.1861,Lindfield,New South Wales,Australia,Cricket,24
-37.7759,144.8014,Ardeer,Victoria,Australia,Soccer,18
-37.8720,145.0216,Caulfield North,Victoria,Australia,Rugby League,70
-38.0500,145.1167,Chelsea,Victoria,Australia,Cricket,30
-28.0717,153.4416,Miami,Queensland,Australia,Soccer,5
-37.7146,176.3294,Tauranga,Bay of Plenty,New Zealand,Cricket,15
-38.4000,145.6333,Woodleigh,Victoria,Australia,Tennis,1
-38.0833,145.1333,Patterson Lakes,Victoria,Australia,Australian Rules,70
-33.8281,151.2017,Crows Nest,New South Wales,Australia,Tennis,91
-33.2937,151.4015,Mardi,New South Wales,Australia,Soccer,21
-37.7099,144.7548,Taylors Hill,Victoria,Australia,Australian Rules,95
-32.1286,116.0542,Kelmscott,Western Australia,Australia,Rugby League,19
-35.4593,149.1042,Conder,Australian Capital Territory,Australia,Soccer,20
-28.1667,153.5167,Coolangatta,Queensland,Australia,Rugby League,2
-25.2833,152.8500,Scarness,Queensland,Australia,Australian Rules,2
-39.0548,174.1086,Glen Avon,Taranaki,New Zealand,Rugby Union,1
-27.6333,153.2333,Redland Bay,Queensland,Australia,Cricket,20
-37.6500,145.1000,Morang,Victoria,Australia,Rugby League,46
-34.4167,150.8667,Keiraville,New South Wales,Australia,Tennis,2
-34.0044,150.8965,Macquarie Fields,New South Wales,Australia,Cricket,15
-38.2667,145.0167,Mount Martha,Victoria,Australia,Cricket,21
-34.2261,150.9858,Stanwell Park,New South Wales,Australia,Cricket,2
-41.4362,147.1292,Royal Park,Tasmania,Australia,Australian Rules,5
-32.0398,115.8678,Rossmoyne,Western Australia,Australia,Soccer,26
-36.8874,174.8528,Auckland,Auckland,New Zealand,Cricket,61
-33.9167,151.0833,Lakemba,New South Wales,Australia,Rugby Union,58
-37.8005,144.9684,Carlton,Victoria,Australia,Rugby Union,50
-37.8877,145.0952,Chadstone,Victoria,Australia,Rugby Union,14
-33.9833,151.1000,Blakehurst,New South Wales,Australia,Tennis,20
-35.2119,149.0689,Evatt,Australian Capital Territory,Australia,Australian Rules,24
-36.8236,174.7918,Auckland,Auckland,New Zealand,Cricket,13
-37.8333,145.0000,Cremorne,Victoria,Australia,Australian Rules,12
-37.8626,145.0794,Ashburton,Victoria,Australia,Soccer,92
-33.6552,151.3213,Newport,New South Wales,Australia,Rugby Union,7
-32.3161,115.7546,Waikiki,Western Australia,Australia,Australian Rules,7
-33.5000,150.5333,Bilpin,New South Wales,Australia,Cricket,5
-31.0833,152.7667,Aldavilla,New South Wales,Australia,Tennis,5
-37.5833,145.2000,Hurstbridge,Victoria,Australia,Tennis,9
-37.7500,145.0667,Rosanna,Victoria,Australia,Soccer,27
-41.3375,174.7506,Wellington,Wellington,New Zealand,Rugby Union,13
-34.8333,138.6833,Modbury,South Australia,Australia,Rugby League,36
-27.2761,152.9447,Joyner,Queensland,Australia,Rugby League,64
-27.4482,153.0134,Kelvin Grove,Queensland,Australia,Tennis,75
-28.1667,153.5167,Coolangatta,Queensland,Australia,Cricket,1
-33.9500,151.2333,Maroubra,New South Wales,Australia,Tennis,63
-36.9410,174.8483,Auckland,Auckland,New Zealand,Cricket,82
-27.4833,153.0167,Brisbane,Queensland,Australia,Australian Rules,78
-27.2667,152.9833,Petrie,Queensland,Australia,Tennis,58
-34.5000,150.4000,Burradoo,New South Wales,Australia,Rugby League,16
-37.8333,145.3667,Mount Dandenong,Victoria,Australia,Soccer,20
-40.3692,175.6288,Palmerston North,Manawatu-Wanganui,New Zealand,Soccer,21
-37.9935,145.2389,Doveton,Victoria,Australia,Rugby Union,18
-34.7833,150.5667,Beaumont,New South Wales,Australia,Cricket,25
-38.0167,145.2667,Hallam,Victoria,Australia,Cricket,30
-27.4710,153.0243,Brisbane,Queensland,Australia,Rugby League,234
-28.1358,153.4493,Elanora,Queensland,Australia,Australian Rules,10
-27.4833,153.0417,Brisbane,Queensland,Australia,Rugby League,225
-33.3814,151.4729,Bateau Bay,New South Wales,Australia,Australian Rules,15
-33.8582,151.1309,Wareemba,New South Wales,Australia,Rugby League,16
-37.9133,146.3114,Yallourn,Victoria,Australia,Rugby League,7
-28.0167,153.4000,Surfers Paradise,Queensland,Australia,Australian Rules,58
-40.6222,175.2866,Levin,Manawatu-Wanganui,New Zealand,Tennis,2
-38.0833,145.1333,Patterson Lakes,Victoria,Australia,Tennis,30
-37.7667,145.1167,Templestowe Lower,Victoria,Australia,Rugby League,15
-36.8451,174.7675,Auckland,Auckland,New Zealand,Rugby Union,9
-33.8000,150.9500,Pendle Hills,New South Wales,Australia,Tennis,14
-33.7275,151.2791,Wheeler Heights,New South Wales,Australia,Soccer,5
-35.2346,149.0390,Scullin,Australian Capital Territory,Australia,Tennis,10
-33.0150,151.6429,Valentine,New South Wales,Australia,Rugby League,17
-34.7994,138.6871,Wynn Vale,South Australia,Australia,Cricket,16
-34.5874,150.5912,Robertson,New South Wales,Australia,Cricket,1
-30.3646,153.1014,Sawtell,New South Wales,Australia,Rugby League,9
-34.8333,138.7000,Hope Valley,South Australia,Australia,Cricket,38
-35.2778,149.0111,Canberra,Australian Capital Territory,Australia,Rugby Union,2
-35.1623,149.1386,Bonner,Australian Capital Territory,Australia,Tennis,19
-27.9667,151.2167,Clontarf,Queensland,Australia,Tennis,14
-33.7168,150.8667,Schofields,New South Wales,Australia,Soccer,5
-33.9806,150.9966,Picnic Point,New South Wales,Australia,Tennis,27
-33.8778,151.2435,Double Bay,New South Wales,Australia,Rugby Union,12
-37.7881,175.2644,Hamilton,Waikato,New Zealand,Soccer,6
-33.9500,151.2333,Matraville,New South Wales,Australia,Rugby Union,15
-27.8254,153.2335,Kingsholme,Queensland,Australia,Rugby League,1
-33.7244,150.9182,Parklea,New South Wales,Australia,Rugby League,17
-42.7667,147.2500,Austins Ferry,Tasmania,Australia,Australian Rules,22
